[
{ "name": "Aberaeron", "postcode": "SA46", "lat": 52.243, "lon": -4.258 },
{ "name": "Aberdare", "postcode": "CF44", "lat": 51.713, "lon": -3.449 },
{ "name": "Aberdeen", "postcode": "AB10", "lat": 57.150, "lon": -2.090 },
{ "name": "Aberfeldy", "postcode": "PH15", "lat": 56.622, "lon": -3.867 },
{ "name": "Abergavenny", "postcode": "NP7", "lat": 51.821, "lon": -3.018 },
{ "name": "Abergele", "postcode": "LL22", "lat": 53.289, "lon": -3.582 },
{ "name": "Aberlour", "postcode": "AB38", "lat": 57.470, "lon": -3.228 },
{ "name": "Aberporth", "postcode": "SA43", "lat": 52.139, "lon": -4.543 },
{ "name": "Aberystwyth", "postcode": "SY23", "lat": 52.414, "lon": -4.083 },
{ "name": "Abingdon", "postcode": "OX14", "lat": 51.671, "lon": -1.282 },
{ "name": "Accrington", "postcode": "BB5", "lat": 53.753, "lon": -2.367 },
{ "name": "Acle", "postcode": "NR13", "lat": 52.636, "lon": 1.548 },
{ "name": "Acomb", "postcode": "YO24", "lat": 53.953, "lon": -1.128 },
{ "name": "Acton", "postcode": "W3", "lat": 51.508, "lon": -0.276 },
{ "name": "Adlington", "postcode": "PR7", "lat": 53.613, "lon": -2.600 },
{ "name": "Airdrie", "postcode": "ML6", "lat": 55.866, "lon": -3.980 },
{ "name": "Alcester", "postcode": "B49", "lat": 52.216, "lon": -1.868 },
{ "name": "Aldeburgh", "postcode": "IP15", "lat": 52.155, "lon": 1.602 },
{ "name": "Alderley Edge", "postcode": "SK9", "lat": 53.303, "lon": -2.237 },
{ "name": "Aldershot", "postcode": "GU11", "lat": 51.248, "lon": -0.758 },
{ "name": "Aldridge", "postcode": "WS9", "lat": 52.605, "lon": -1.917 },
{ "name": "Alford", "postcode": "LN13", "lat": 53.261, "lon": 0.176 },
{ "name": "Alfreton", "postcode": "DE55", "lat": 53.097, "lon": -1.382 },
{ "name": "Alloa", "postcode": "FK10", "lat": 56.115, "lon": -3.789 },
{ "name": "Alnwick", "postcode": "NE66", "lat": 55.413, "lon": -1.706 },
{ "name": "Alsager", "postcode": "ST7", "lat": 53.100, "lon": -2.306 },
{ "name": "Alston", "postcode": "CA9", "lat": 54.814, "lon": -2.439 },
{ "name": "Alyth", "postcode": "PH11", "lat": 56.623, "lon": -3.319 },
{ "name": "Amble", "postcode": "NE65", "lat": 55.339, "lon": -1.580 },
{ "name": "Ambleside", "postcode": "LA22", "lat": 54.431, "lon": -2.961 },
{ "name": "Amesbury", "postcode": "SP4", "lat": 51.170, "lon": -1.780 },
{ "name": "Ampthill", "postcode": "MK45", "lat": 52.028, "lon": -0.495 },
{ "name": "Andover", "postcode": "SP10", "lat": 51.209, "lon": -1.481 },
{ "name": "Annan", "postcode": "DG12", "lat": 54.989, "lon": -3.259 },
{ "name": "Anstruther", "postcode": "KY10", "lat": 56.196, "lon": -2.703 },
{ "name": "Antrim", "postcode": "BT41", "lat": 54.717, "lon": -6.205 },
{ "name": "Appleby-in-Westmorland", "postcode": "CA16", "lat": 54.577, "lon": -2.489 },
{ "name": "Arbroath", "postcode": "DD11", "lat": 56.561, "lon": -2.587 },
{ "name": "Ardrossan", "postcode": "KA22", "lat": 55.640, "lon": -4.812 },
{ "name": "Armagh", "postcode": "BT61", "lat": 54.350, "lon": -6.652 },
{ "name": "Armadale", "postcode": "EH48", "lat": 55.897, "lon": -3.706 },
{ "name": "Armadale (Highland)", "postcode": "KW14", "lat": 58.566, "lon": -4.083 },
{ "name": "Arnold", "postcode": "NG5", "lat": 53.000, "lon": -1.128 },
{ "name": "Arundel", "postcode": "BN18", "lat": 50.854, "lon": -0.553 },
{ "name": "Ascot", "postcode": "SL5", "lat": 51.410, "lon": -0.674 },
{ "name": "Ashbourne", "postcode": "DE6", "lat": 53.017, "lon": -1.733 },
{ "name": "Ashburton", "postcode": "TQ13", "lat": 50.516, "lon": -3.755 },
{ "name": "Ashby-de-la-Zouch", "postcode": "LE65", "lat": 52.744, "lon": -1.457 },
{ "name": "Ashford (Kent)", "postcode": "TN23", "lat": 51.148, "lon": 0.873 },
{ "name": "Ashington", "postcode": "NE63", "lat": 55.182, "lon": -1.569 },
{ "name": "Ashton-in-Makerfield", "postcode": "WN4", "lat": 53.497, "lon": -2.635 },
{ "name": "Ashton-under-Lyne", "postcode": "OL6", "lat": 53.488, "lon": -2.098 },
{ "name": "Askern", "postcode": "DN6", "lat": 53.617, "lon": -1.152 },
{ "name": "Atherstone", "postcode": "CV9", "lat": 52.578, "lon": -1.546 },
{ "name": "Atherton", "postcode": "M46", "lat": 53.523, "lon": -2.493 },
{ "name": "Auchterarder", "postcode": "PH3", "lat": 56.297, "lon": -3.707 },
{ "name": "Aviemore", "postcode": "PH22", "lat": 57.195, "lon": -3.825 },
{ "name": "Axminster", "postcode": "EX13", "lat": 50.782, "lon": -2.997 },
{ "name": "Aylesbury", "postcode": "HP20", "lat": 51.816, "lon": -0.812 },
{ "name": "Aylsham", "postcode": "NR11", "lat": 52.795, "lon": 1.253 },
{ "name": "Ayr", "postcode": "KA7", "lat": 55.458, "lon": -4.629 },
{ "name": "Bacup", "postcode": "OL13", "lat": 53.703, "lon": -2.200 },
{ "name": "Bakewell", "postcode": "DE45", "lat": 53.213, "lon": -1.675 },
{ "name": "Bala", "postcode": "LL23", "lat": 52.913, "lon": -3.594 },
{ "name": "Balerno", "postcode": "EH14", "lat": 55.884, "lon": -3.339 },
{ "name": "Ballater", "postcode": "AB35", "lat": 57.050, "lon": -3.040 },
{ "name": "Balloch", "postcode": "G83", "lat": 56.000, "lon": -4.583 },
{ "name": "Ballycastle", "postcode": "BT54", "lat": 55.204, "lon": -6.243 },
{ "name": "Ballyclare", "postcode": "BT39", "lat": 54.766, "lon": -5.999 },
{ "name": "Ballymena", "postcode": "BT43", "lat": 54.865, "lon": -6.280 },
{ "name": "Ballymoney", "postcode": "BT53", "lat": 55.070, "lon": -6.515 },
{ "name": "Ballynahinch", "postcode": "BT24", "lat": 54.402, "lon": -5.900 },
{ "name": "Banbridge", "postcode": "BT32", "lat": 54.350, "lon": -6.270 },
{ "name": "Banbury", "postcode": "OX16", "lat": 52.063, "lon": -1.339 },
{ "name": "Banchory", "postcode": "AB31", "lat": 57.053, "lon": -2.489 },
{ "name": "Banff", "postcode": "AB45", "lat": 57.670, "lon": -2.529 },
{ "name": "Bangor (Gwynedd)", "postcode": "LL57", "lat": 53.227, "lon": -4.129 },
{ "name": "Bangor (Northern Ireland)", "postcode": "BT20", "lat": 54.664, "lon": -5.669 },
{ "name": "Bargoed", "postcode": "CF81", "lat": 51.690, "lon": -3.229 },
{ "name": "Barking", "postcode": "IG11", "lat": 51.536, "lon": 0.075 },
{ "name": "Barnard Castle", "postcode": "DL12", "lat": 54.543, "lon": -1.923 },
{ "name": "Barnet", "postcode": "EN5", "lat": 51.655, "lon": -0.207 },
{ "name": "Barnoldswick", "postcode": "BB18", "lat": 53.917, "lon": -2.183 },
{ "name": "Barnsley", "postcode": "S70", "lat": 53.553, "lon": -1.479 },
{ "name": "Barnstaple", "postcode": "EX31", "lat": 51.080, "lon": -4.058 },
{ "name": "Barrow-in-Furness", "postcode": "LA14", "lat": 54.110, "lon": -3.226 },
{ "name": "Barry", "postcode": "CF62", "lat": 51.399, "lon": -3.283 },
{ "name": "Barton-upon-Humber", "postcode": "DN18", "lat": 53.688, "lon": -0.441 },
{ "name": "Basildon", "postcode": "SS14", "lat": 51.568, "lon": 0.457 },
{ "name": "Basingstoke", "postcode": "RG21", "lat": 51.266, "lon": -1.092 },
{ "name": "Bath", "postcode": "BA1", "lat": 51.381, "lon": -2.359 },
{ "name": "Bathgate", "postcode": "EH48", "lat": 55.902, "lon": -3.644 },
{ "name": "Batley", "postcode": "WF17", "lat": 53.720, "lon": -1.633 },
{ "name": "Battersea", "postcode": "SW11", "lat": 51.464, "lon": -0.166 },
{ "name": "Battle", "postcode": "TN33", "lat": 50.917, "lon": 0.487 },
{ "name": "Beaconsfield", "postcode": "HP9", "lat": 51.577, "lon": -0.647 },
{ "name": "Beaminster", "postcode": "DT8", "lat": 50.810, "lon": -2.739 },
{ "name": "Bearsden", "postcode": "G61", "lat": 55.920, "lon": -4.330 },
{ "name": "Beaumaris", "postcode": "LL58", "lat": 53.263, "lon": -4.093 },
{ "name": "Bebington", "postcode": "CH63", "lat": 53.349, "lon": -3.007 },
{ "name": "Beccles", "postcode": "NR34", "lat": 52.459, "lon": 1.564 },
{ "name": "Beckenham", "postcode": "BR3", "lat": 51.408, "lon": -0.028 },
{ "name": "Bedale", "postcode": "DL8", "lat": 54.288, "lon": -1.594 },
{ "name": "Bedford", "postcode": "MK40", "lat": 52.136, "lon": -0.466 },
{ "name": "Bedlington", "postcode": "NE22", "lat": 55.130, "lon": -1.593 },
{ "name": "Bedworth", "postcode": "CV12", "lat": 52.480, "lon": -1.469 },
{ "name": "Beeston", "postcode": "NG9", "lat": 52.923, "lon": -1.207 },
{ "name": "Belper", "postcode": "DE56", "lat": 53.023, "lon": -1.482 },
{ "name": "Berkhamsted", "postcode": "HP4", "lat": 51.760, "lon": -0.565 },
{ "name": "Berwick-upon-Tweed", "postcode": "TD15", "lat": 55.770, "lon": -2.005 },
{ "name": "Beverley", "postcode": "HU17", "lat": 53.842, "lon": -0.427 },
{ "name": "Bewdley", "postcode": "DY12", "lat": 52.375, "lon": -2.317 },
{ "name": "Bexhill-on-Sea", "postcode": "TN39", "lat": 50.842, "lon": 0.470 },
{ "name": "Bexley", "postcode": "DA5", "lat": 51.441, "lon": 0.148 },
{ "name": "Bicester", "postcode": "OX26", "lat": 51.899, "lon": -1.153 },
{ "name": "Biddulph", "postcode": "ST8", "lat": 53.115, "lon": -2.175 },
{ "name": "Biggar", "postcode": "ML12", "lat": 55.623, "lon": -3.524 },
{ "name": "Biggleswade", "postcode": "SG18", "lat": 52.086, "lon": -0.264 },
{ "name": "Billericay", "postcode": "CM12", "lat": 51.628, "lon": 0.415 },
{ "name": "Billingham", "postcode": "TS23", "lat": 54.608, "lon": -1.290 },
{ "name": "Bilston", "postcode": "WV14", "lat": 52.565, "lon": -2.064 },
{ "name": "Bingham", "postcode": "NG13", "lat": 52.954, "lon": -0.953 },
{ "name": "Bingley", "postcode": "BD16", "lat": 53.849, "lon": -1.836 },
{ "name": "Birkenhead", "postcode": "CH41", "lat": 53.389, "lon": -3.022 },
{ "name": "Birmingham", "postcode": "B1", "lat": 52.479, "lon": -1.902 },
{ "name": "Bishop Auckland", "postcode": "DL14", "lat": 54.660, "lon": -1.677 },
{ "name": "Bishopbriggs", "postcode": "G64", "lat": 55.908, "lon": -4.218 },
{ "name": "Bishops Castle", "postcode": "SY9", "lat": 52.493, "lon": -2.998 },
{ "name": "Bishops Stortford", "postcode": "CM23", "lat": 51.872, "lon": 0.158 },
{ "name": "Bishopton", "postcode": "PA7", "lat": 55.912, "lon": -4.503 },
{ "name": "Blackburn", "postcode": "BB2", "lat": 53.744, "lon": -2.479 },
{ "name": "Blackpool", "postcode": "FY1", "lat": 53.815, "lon": -3.055 },
{ "name": "Blackwood", "postcode": "NP12", "lat": 51.664, "lon": -3.196 },
{ "name": "Blaenau Ffestiniog", "postcode": "LL41", "lat": 52.994, "lon": -3.936 },
{ "name": "Blairgowrie", "postcode": "PH10", "lat": 56.588, "lon": -3.340 },
{ "name": "Blandford Forum", "postcode": "DT11", "lat": 50.859, "lon": -2.166 },
{ "name": "Blaydon", "postcode": "NE21", "lat": 54.964, "lon": -1.714 },
{ "name": "Bletchley", "postcode": "MK3", "lat": 52.000, "lon": -0.740 },
{ "name": "Bloxwich", "postcode": "WS3", "lat": 52.619, "lon": -2.011 },
{ "name": "Blyth", "postcode": "NE24", "lat": 55.127, "lon": -1.508 },
{ "name": "Bo'ness", "postcode": "EH51", "lat": 56.017, "lon": -3.609 },
{ "name": "Bodmin", "postcode": "PL31", "lat": 50.471, "lon": -4.724 },
{ "name": "Bognor Regis", "postcode": "PO21", "lat": 50.783, "lon": -0.676 },
{ "name": "Bollington", "postcode": "SK10", "lat": 53.294, "lon": -2.110 },
{ "name": "Bolsover", "postcode": "S44", "lat": 53.231, "lon": -1.289 },
{ "name": "Bolton", "postcode": "BL1", "lat": 53.578, "lon": -2.433 },
{ "name": "Bonnyrigg", "postcode": "EH19", "lat": 55.868, "lon": -3.106 },
{ "name": "Bootle", "postcode": "L20", "lat": 53.446, "lon": -2.987 },
{ "name": "Bordon", "postcode": "GU35", "lat": 51.113, "lon": -0.858 },
{ "name": "Borehamwood", "postcode": "WD6", "lat": 51.656, "lon": -0.275 },
{ "name": "Boston", "postcode": "PE21", "lat": 52.978, "lon": -0.023 },
{ "name": "Bourne", "postcode": "PE10", "lat": 52.768, "lon": -0.377 },
{ "name": "Bournemouth", "postcode": "BH2", "lat": 50.720, "lon": -1.879 },
{ "name": "Bowmore", "postcode": "PA43", "lat": 55.756, "lon": -6.289 },
{ "name": "Brackley", "postcode": "NN13", "lat": 52.033, "lon": -1.148 },
{ "name": "Bracknell", "postcode": "RG12", "lat": 51.416, "lon": -0.753 },
{ "name": "Bradford", "postcode": "BD1", "lat": 53.794, "lon": -1.751 },
{ "name": "Bradford-on-Avon", "postcode": "BA15", "lat": 51.346, "lon": -2.251 },
{ "name": "Brading", "postcode": "PO36", "lat": 50.679, "lon": -1.140 },
{ "name": "Bradley Stoke", "postcode": "BS32", "lat": 51.538, "lon": -2.545 },
{ "name": "Braintree", "postcode": "CM7", "lat": 51.875, "lon": 0.552 },
{ "name": "Bramhall", "postcode": "SK7", "lat": 53.358, "lon": -2.165 },
{ "name": "Bramley", "postcode": "LS13", "lat": 53.807, "lon": -1.628 },
{ "name": "Brandon", "postcode": "IP27", "lat": 52.447, "lon": 0.623 },
{ "name": "Braunton", "postcode": "EX33", "lat": 51.108, "lon": -4.171 },
{ "name": "Brechin", "postcode": "DD9", "lat": 56.729, "lon": -2.657 },
{ "name": "Brecon", "postcode": "LD3", "lat": 51.947, "lon": -3.389 },
{ "name": "Brentford", "postcode": "TW8", "lat": 51.486, "lon": -0.309 },
{ "name": "Brentwood", "postcode": "CM14", "lat": 51.620, "lon": 0.305 },
{ "name": "Bridge of Allan", "postcode": "FK9", "lat": 56.155, "lon": -3.942 },
{ "name": "Bridgend", "postcode": "CF31", "lat": 51.506, "lon": -3.577 },
{ "name": "Bridgnorth", "postcode": "WV16", "lat": 52.536, "lon": -2.420 },
{ "name": "Bridgwater", "postcode": "TA6", "lat": 51.128, "lon": -2.993 },
{ "name": "Bridlington", "postcode": "YO15", "lat": 54.084, "lon": -0.192 },
{ "name": "Brigg", "postcode": "DN20", "lat": 53.552, "lon": -0.492 },
{ "name": "Brighouse", "postcode": "HD6", "lat": 53.703, "lon": -1.780 },
{ "name": "Brightlingsea", "postcode": "CO7", "lat": 51.813, "lon": 1.023 },
{ "name": "Brighton", "postcode": "BN1", "lat": 50.822, "lon": -0.137 },
{ "name": "Bristol", "postcode": "BS1", "lat": 51.454, "lon": -2.587 },
{ "name": "Brixham", "postcode": "TQ5", "lat": 50.394, "lon": -3.515 },
{ "name": "Broadstairs", "postcode": "CT10", "lat": 51.359, "lon": 1.439 },
{ "name": "Broadstone", "postcode": "BH18", "lat": 50.760, "lon": -1.998 },
{ "name": "Bromley", "postcode": "BR1", "lat": 51.406, "lon": 0.016 },
{ "name": "Bromsgrove", "postcode": "B61", "lat": 52.335, "lon": -2.059 },
{ "name": "Bromyard", "postcode": "HR7", "lat": 52.190, "lon": -2.510 },
{ "name": "Broseley", "postcode": "TF12", "lat": 52.613, "lon": -2.482 },
{ "name": "Broughton (Flintshire)", "postcode": "CH4", "lat": 53.167, "lon": -2.983 },
{ "name": "Broughty Ferry", "postcode": "DD5", "lat": 56.467, "lon": -2.867 },
{ "name": "Broxburn", "postcode": "EH52", "lat": 55.934, "lon": -3.471 },
{ "name": "Bruton", "postcode": "BA10", "lat": 51.113, "lon": -2.452 },
{ "name": "Brymbo", "postcode": "LL11", "lat": 53.066, "lon": -3.053 },
{ "name": "Brynmawr", "postcode": "NP23", "lat": 51.802, "lon": -3.176 },
{ "name": "Buckfastleigh", "postcode": "TQ11", "lat": 50.493, "lon": -3.778 },
{ "name": "Buckhaven", "postcode": "KY8", "lat": 56.167, "lon": -3.033 },
{ "name": "Buckie", "postcode": "AB56", "lat": 57.675, "lon": -2.963 },
{ "name": "Buckingham", "postcode": "MK18", "lat": 51.999, "lon": -0.986 },
{ "name": "Bude", "postcode": "EX23", "lat": 50.824, "lon": -4.543 },
{ "name": "Budleigh Salterton", "postcode": "EX9", "lat": 50.630, "lon": -3.325 },
{ "name": "Builth Wells", "postcode": "LD2", "lat": 52.150, "lon": -3.405 },
{ "name": "Bungay", "postcode": "NR35", "lat": 52.455, "lon": 1.438 },
{ "name": "Buntingford", "postcode": "SG9", "lat": 51.945, "lon": -0.017 },
{ "name": "Burford", "postcode": "OX18", "lat": 51.809, "lon": -1.636 },
{ "name": "Burgess Hill", "postcode": "RH15", "lat": 50.956, "lon": -0.132 },
{ "name": "Burnham-on-Crouch", "postcode": "CM0", "lat": 51.631, "lon": 0.814 },
{ "name": "Burnham-on-Sea", "postcode": "TA8", "lat": 51.238, "lon": -2.996 },
{ "name": "Burnley", "postcode": "BB11", "lat": 53.789, "lon": -2.248 },
{ "name": "Burntisland", "postcode": "KY3", "lat": 56.063, "lon": -3.231 },
{ "name": "Burry Port", "postcode": "SA16", "lat": 51.685, "lon": -4.248 },
{ "name": "Burton Latimer", "postcode": "NN15", "lat": 52.365, "lon": -0.678 },
{ "name": "Burton upon Trent", "postcode": "DE14", "lat": 52.806, "lon": -1.635 },
{ "name": "Bury", "postcode": "BL9", "lat": 53.593, "lon": -2.298 },
{ "name": "Bury St Edmunds", "postcode": "IP33", "lat": 52.243, "lon": 0.711 },
{ "name": "Bushey", "postcode": "WD23", "lat": 51.644, "lon": -0.360 },
{ "name": "Buxton", "postcode": "SK17", "lat": 53.259, "lon": -1.911 },
{ "name": "Caerleon", "postcode": "NP18", "lat": 51.609, "lon": -2.954 },
{ "name": "Caernarfon", "postcode": "LL55", "lat": 53.141, "lon": -4.276 },
{ "name": "Caerphilly", "postcode": "CF83", "lat": 51.574, "lon": -3.218 },
{ "name": "Caldicot", "postcode": "NP26", "lat": 51.589, "lon": -2.753 },
{ "name": "Callander", "postcode": "FK17", "lat": 56.244, "lon": -4.216 },
{ "name": "Calne", "postcode": "SN11", "lat": 51.438, "lon": -2.005 },
{ "name": "Camberley", "postcode": "GU15", "lat": 51.336, "lon": -0.755 },
{ "name": "Camborne", "postcode": "TR14", "lat": 50.213, "lon": -5.297 },
{ "name": "Cambridge", "postcode": "CB1", "lat": 52.205, "lon": 0.119 },
{ "name": "Camelford", "postcode": "PL32", "lat": 50.622, "lon": -4.683 },
{ "name": "Campbeltown", "postcode": "PA28", "lat": 55.425, "lon": -5.602 },
{ "name": "Cannock", "postcode": "WS11", "lat": 52.690, "lon": -2.030 },
{ "name": "Canterbury", "postcode": "CT1", "lat": 51.280, "lon": 1.083 },
{ "name": "Cardiff", "postcode": "CF10", "lat": 51.481, "lon": -3.179 },
{ "name": "Cardigan", "postcode": "SA43", "lat": 52.083, "lon": -4.660 },
{ "name": "Carlisle", "postcode": "CA1", "lat": 54.895, "lon": -2.938 },
{ "name": "Carluke", "postcode": "ML8", "lat": 55.736, "lon": -3.848 },
{ "name": "Carmarthen", "postcode": "SA31", "lat": 51.857, "lon": -4.311 },
{ "name": "Carnforth", "postcode": "LA5", "lat": 54.128, "lon": -2.772 },
{ "name": "Carrickfergus", "postcode": "BT38", "lat": 54.716, "lon": -5.806 },
{ "name": "Carterton", "postcode": "OX18", "lat": 51.761, "lon": -1.594 },
{ "name": "Castle Douglas", "postcode": "DG7", "lat": 54.940, "lon": -3.928 },
{ "name": "Castleford", "postcode": "WF10", "lat": 53.725, "lon": -1.355 },
{ "name": "Castlereagh", "postcode": "BT6", "lat": 54.573, "lon": -5.884 },
{ "name": "Caterham", "postcode": "CR3", "lat": 51.282, "lon": -0.078 },
{ "name": "Catterick Garrison", "postcode": "DL9", "lat": 54.375, "lon": -1.704 },
{ "name": "Cawood", "postcode": "YO8", "lat": 53.822, "lon": -1.158 },
{ "name": "Chadderton", "postcode": "OL9", "lat": 53.546, "lon": -2.137 },
{ "name": "Chagford", "postcode": "TQ13", "lat": 50.674, "lon": -3.840 },
{ "name": "Chapel-en-le-Frith", "postcode": "SK23", "lat": 53.324, "lon": -1.912 },
{ "name": "Chard", "postcode": "TA20", "lat": 50.872, "lon": -2.965 },
{ "name": "Charlbury", "postcode": "OX7", "lat": 51.872, "lon": -1.482 },
{ "name": "Chatham", "postcode": "ME4", "lat": 51.380, "lon": 0.527 },
{ "name": "Chatteris", "postcode": "PE16", "lat": 52.457, "lon": 0.050 },
{ "name": "Cheadle", "postcode": "SK8", "lat": 53.394, "lon": -2.214 },
{ "name": "Cheadle Hulme", "postcode": "SK8", "lat": 53.374, "lon": -2.188 },
{ "name": "Cheddar", "postcode": "BS27", "lat": 51.275, "lon": -2.775 },
{ "name": "Chelmsford", "postcode": "CM1", "lat": 51.736, "lon": 0.479 },
{ "name": "Cheltenham", "postcode": "GL50", "lat": 51.900, "lon": -2.079 },
{ "name": "Chepstow", "postcode": "NP16", "lat": 51.640, "lon": -2.676 },
{ "name": "Chesham", "postcode": "HP5", "lat": 51.709, "lon": -0.602 },
{ "name": "Cheshunt", "postcode": "EN8", "lat": 51.703, "lon": -0.034 },
{ "name": "Chester", "postcode": "CH1", "lat": 53.191, "lon": -2.895 },
{ "name": "Chester-le-Street", "postcode": "DH3", "lat": 54.858, "lon": -1.574 },
{ "name": "Chesterfield", "postcode": "S40", "lat": 53.235, "lon": -1.421 },
{ "name": "Chichester", "postcode": "PO19", "lat": 50.836, "lon": -0.779 },
{ "name": "Chigwell", "postcode": "IG7", "lat": 51.619, "lon": 0.075 },
{ "name": "Chilton", "postcode": "OX11", "lat": 51.598, "lon": -1.285 },
{ "name": "Chingford", "postcode": "E4", "lat": 51.633, "lon": 0.016 },
{ "name": "Chippenham", "postcode": "SN15", "lat": 51.461, "lon": -2.115 },
{ "name": "Chipping Campden", "postcode": "GL55", "lat": 52.049, "lon": -1.778 },
{ "name": "Chipping Norton", "postcode": "OX7", "lat": 51.943, "lon": -1.545 },
{ "name": "Chipping Sodbury", "postcode": "BS37", "lat": 51.540, "lon": -2.396 },
{ "name": "Chorley", "postcode": "PR7", "lat": 53.653, "lon": -2.632 },
{ "name": "Christchurch", "postcode": "BH23", "lat": 50.735, "lon": -1.778 },
{ "name": "Chudleigh", "postcode": "TQ13", "lat": 50.607, "lon": -3.600 },
{ "name": "Church Stretton", "postcode": "SY6", "lat": 52.537, "lon": -2.802 },
{ "name": "Cinderford", "postcode": "GL14", "lat": 51.823, "lon": -2.498 },
{ "name": "Cirencester", "postcode": "GL7", "lat": 51.718, "lon": -1.968 },
{ "name": "Clacton-on-Sea", "postcode": "CO15", "lat": 51.789, "lon": 1.155 },
{ "name": "Clackmannan", "postcode": "FK10", "lat": 56.112, "lon": -3.740 },
{ "name": "Clitheroe", "postcode": "BB7", "lat": 53.873, "lon": -2.392 },
{ "name": "Clogher", "postcode": "BT76", "lat": 54.429, "lon": -7.173 },
{ "name": "Clydebank", "postcode": "G81", "lat": 55.901, "lon": -4.405 },
{ "name": "Coalisland", "postcode": "BT71", "lat": 54.540, "lon": -6.700 },
{ "name": "Coatbridge", "postcode": "ML5", "lat": 55.863, "lon": -4.024 },
{ "name": "Cobham", "postcode": "KT11", "lat": 51.328, "lon": -0.389 },
{ "name": "Cockermouth", "postcode": "CA13", "lat": 54.662, "lon": -3.363 },
{ "name": "Colchester", "postcode": "CO1", "lat": 51.889, "lon": 0.903 },
{ "name": "Coleraine", "postcode": "BT52", "lat": 55.132, "lon": -6.668 },
{ "name": "Coleshill", "postcode": "B46", "lat": 52.516, "lon": -1.704 },
{ "name": "Colne", "postcode": "BB8", "lat": 53.856, "lon": -2.169 },
{ "name": "Colwyn Bay", "postcode": "LL29", "lat": 53.295, "lon": -3.726 },
{ "name": "Comber", "postcode": "BT23", "lat": 54.549, "lon": -5.744 },
{ "name": "Congleton", "postcode": "CW12", "lat": 53.163, "lon": -2.212 },
{ "name": "Conisbrough", "postcode": "DN12", "lat": 53.486, "lon": -1.230 },
{ "name": "Consett", "postcode": "DH8", "lat": 54.854, "lon": -1.833 },
{ "name": "Conwy", "postcode": "LL32", "lat": 53.280, "lon": -3.825 },
{ "name": "Cookstown", "postcode": "BT80", "lat": 54.643, "lon": -6.745 },
{ "name": "Corbridge", "postcode": "NE45", "lat": 54.974, "lon": -2.015 },
{ "name": "Corby", "postcode": "NN17", "lat": 52.489, "lon": -0.703 },
{ "name": "Corsham", "postcode": "SN13", "lat": 51.432, "lon": -2.186 },
{ "name": "Cottingham", "postcode": "HU16", "lat": 53.780, "lon": -0.405 },
{ "name": "Coupar Angus", "postcode": "PH13", "lat": 56.545, "lon": -3.263 },
{ "name": "Coventry", "postcode": "CV1", "lat": 52.408, "lon": -1.510 },
{ "name": "Cowbridge", "postcode": "CF71", "lat": 51.462, "lon": -3.449 },
{ "name": "Cowdenbeath", "postcode": "KY4", "lat": 56.112, "lon": -3.344 },
{ "name": "Cowes", "postcode": "PO31", "lat": 50.763, "lon": -1.297 },
{ "name": "Cramlington", "postcode": "NE23", "lat": 55.086, "lon": -1.585 },
{ "name": "Crawley", "postcode": "RH10", "lat": 51.113, "lon": -0.183 },
{ "name": "Crediton", "postcode": "EX17", "lat": 50.790, "lon": -3.652 },
{ "name": "Crewe", "postcode": "CW1", "lat": 53.095, "lon": -2.447 },
{ "name": "Crewkerne", "postcode": "TA18", "lat": 50.882, "lon": -2.795 },
{ "name": "Crickhowell", "postcode": "NP8", "lat": 51.859, "lon": -3.137 },
{ "name": "Crieff", "postcode": "PH7", "lat": 56.372, "lon": -3.840 },
{ "name": "Cromer", "postcode": "NR27", "lat": 52.931, "lon": 1.303 },
{ "name": "Crowborough", "postcode": "TN6", "lat": 51.060, "lon": 0.163 },
{ "name": "Crowland", "postcode": "PE6", "lat": 52.676, "lon": -0.168 },
{ "name": "Crowthorne", "postcode": "RG45", "lat": 51.369, "lon": -0.794 },
{ "name": "Croy", "postcode": "IV2", "lat": 57.540, "lon": -4.050 },
{ "name": "Croydon", "postcode": "CR0", "lat": 51.372, "lon": -0.100 },
{ "name": "Crumlin", "postcode": "BT29", "lat": 54.620, "lon": -6.216 },
{ "name": "Cuckfield", "postcode": "RH17", "lat": 51.012, "lon": -0.140 },
{ "name": "Cullompton", "postcode": "EX15", "lat": 50.855, "lon": -3.393 },
{ "name": "Cumbernauld", "postcode": "G67", "lat": 55.945, "lon": -3.989 },
{ "name": "Cupar", "postcode": "KY15", "lat": 56.318, "lon": -3.012 },
{ "name": "Cwmbran", "postcode": "NP44", "lat": 51.653, "lon": -3.021 },
{ "name": "Dalbeattie", "postcode": "DG5", "lat": 54.932, "lon": -3.822 },
{ "name": "Dalgety Bay", "postcode": "KY11", "lat": 56.034, "lon": -3.355 },
{ "name": "Dalmellington", "postcode": "KA6", "lat": 55.329, "lon": -4.400 },
{ "name": "Dalry", "postcode": "KA24", "lat": 55.705, "lon": -4.720 },
{ "name": "Dalston", "postcode": "CA5", "lat": 54.847, "lon": -2.986 },
{ "name": "Dalton-in-Furness", "postcode": "LA15", "lat": 54.158, "lon": -3.186 },
{ "name": "Dalwhinnie", "postcode": "PH19", "lat": 56.935, "lon": -4.242 },
{ "name": "Danbury", "postcode": "CM3", "lat": 51.718, "lon": 0.582 },
{ "name": "Darlaston", "postcode": "WS10", "lat": 52.569, "lon": -2.037 },
{ "name": "Darlington", "postcode": "DL1", "lat": 54.528, "lon": -1.553 },
{ "name": "Dartford", "postcode": "DA1", "lat": 51.446, "lon": 0.219 },
{ "name": "Dartmouth", "postcode": "TQ6", "lat": 50.351, "lon": -3.579 },
{ "name": "Darwen", "postcode": "BB3", "lat": 53.645, "lon": -2.464 },
{ "name": "Daventry", "postcode": "NN11", "lat": 52.257, "lon": -1.160 },
{ "name": "Dawlish", "postcode": "EX7", "lat": 50.580, "lon": -3.466 },
{ "name": "Deal", "postcode": "CT14", "lat": 51.223, "lon": 1.404 },
{ "name": "Denbigh", "postcode": "LL16", "lat": 53.183, "lon": -3.420 },
{ "name": "Denny", "postcode": "FK6", "lat": 56.020, "lon": -3.908 },
{ "name": "Denton", "postcode": "M34", "lat": 53.456, "lon": -2.116 },
{ "name": "Derby", "postcode": "DE1", "lat": 52.922, "lon": -1.476 },
{ "name": "Dereham", "postcode": "NR19", "lat": 52.681, "lon": 0.939 },
{ "name": "Derry (Londonderry)", "postcode": "BT48", "lat": 55.006, "lon": -7.318 },
{ "name": "Desborough", "postcode": "NN14", "lat": 52.437, "lon": -0.821 },
{ "name": "Devizes", "postcode": "SN10", "lat": 51.353, "lon": -1.994 },
{ "name": "Dewsbury", "postcode": "WF12", "lat": 53.690, "lon": -1.633 },
{ "name": "Didcot", "postcode": "OX11", "lat": 51.607, "lon": -1.242 },
{ "name": "Dinas Powys", "postcode": "CF64", "lat": 51.429, "lon": -3.218 },
{ "name": "Dingwall", "postcode": "IV15", "lat": 57.596, "lon": -4.427 },
{ "name": "Dinnington", "postcode": "S25", "lat": 53.366, "lon": -1.203 },
{ "name": "Diss", "postcode": "IP22", "lat": 52.376, "lon": 1.144 },
{ "name": "Dolgellau", "postcode": "LL40", "lat": 52.744, "lon": -3.885 },
{ "name": "Dollar", "postcode": "FK14", "lat": 56.163, "lon": -3.672 },
{ "name": "Donaghadee", "postcode": "BT21", "lat": 54.644, "lon": -5.538 },
{ "name": "Doncaster", "postcode": "DN1", "lat": 53.523, "lon": -1.133 },
{ "name": "Dorking", "postcode": "RH4", "lat": 51.232, "lon": -0.333 },
{ "name": "Dornoch", "postcode": "IV25", "lat": 57.880, "lon": -4.029 },
{ "name": "Dorset (Blandford Forum)", "postcode": "DT11", "lat": 50.859, "lon": -2.166 },
{ "name": "Douglas (Isle of Man)", "postcode": "IM1", "lat": 54.150, "lon": -4.480 },
{ "name": "Dover", "postcode": "CT16", "lat": 51.129, "lon": 1.313 },
{ "name": "Downham Market", "postcode": "PE38", "lat": 52.605, "lon": 0.383 },
{ "name": "Downpatrick", "postcode": "BT30", "lat": 54.328, "lon": -5.715 },
{ "name": "Driffield", "postcode": "YO25", "lat": 54.005, "lon": -0.440 },
{ "name": "Droitwich Spa", "postcode": "WR9", "lat": 52.268, "lon": -2.150 },
{ "name": "Dronfield", "postcode": "S18", "lat": 53.302, "lon": -1.475 },
{ "name": "Droylsden", "postcode": "M43", "lat": 53.484, "lon": -2.158 },
{ "name": "Drumnadrochit", "postcode": "IV63", "lat": 57.335, "lon": -4.480 },
{ "name": "Dudley", "postcode": "DY1", "lat": 52.512, "lon": -2.081 },
{ "name": "Dukinfield", "postcode": "SK16", "lat": 53.474, "lon": -2.080 },
{ "name": "Dumbarton", "postcode": "G82", "lat": 55.944, "lon": -4.570 },
{ "name": "Dumfries", "postcode": "DG1", "lat": 55.070, "lon": -3.605 },
{ "name": "Dunbar", "postcode": "EH42", "lat": 56.000, "lon": -2.515 },
{ "name": "Dunblane", "postcode": "FK15", "lat": 56.186, "lon": -3.964 },
{ "name": "Dundee", "postcode": "DD1", "lat": 56.462, "lon": -2.970 },
{ "name": "Dundonald", "postcode": "BT16", "lat": 54.592, "lon": -5.809 },
{ "name": "Dunfermline", "postcode": "KY12", "lat": 56.071, "lon": -3.452 },
{ "name": "Dungannon", "postcode": "BT70", "lat": 54.504, "lon": -6.767 },
{ "name": "Dunkeld", "postcode": "PH8", "lat": 56.556, "lon": -3.584 },
{ "name": "Dunmow (Great Dunmow)", "postcode": "CM6", "lat": 51.872, "lon": 0.363 },
{ "name": "Dunoon", "postcode": "PA23", "lat": 55.950, "lon": -4.926 },
{ "name": "Duns", "postcode": "TD11", "lat": 55.777, "lon": -2.345 },
{ "name": "Dunstable", "postcode": "LU6", "lat": 51.886, "lon": -0.522 },
{ "name": "Durham", "postcode": "DH1", "lat": 54.775, "lon": -1.576 },
{ "name": "Dursley", "postcode": "GL11", "lat": 51.681, "lon": -2.353 },
{ "name": "Duxford", "postcode": "CB22", "lat": 52.090, "lon": 0.141 },
{ "name": "Ealing", "postcode": "W5", "lat": 51.513, "lon": -0.307 },
{ "name": "Earl Shilton", "postcode": "LE9", "lat": 52.576, "lon": -1.315 },
{ "name": "Easingwold", "postcode": "YO61", "lat": 54.120, "lon": -1.193 },
{ "name": "East Cowes", "postcode": "PO32", "lat": 50.757, "lon": -1.281 },
{ "name": "East Grinstead", "postcode": "RH19", "lat": 51.128, "lon": -0.018 },
{ "name": "East Kilbride", "postcode": "G74", "lat": 55.764, "lon": -4.177 },
{ "name": "East Linton", "postcode": "EH40", "lat": 55.994, "lon": -2.653 },
{ "name": "Eastbourne", "postcode": "BN21", "lat": 50.768, "lon": 0.287 },
{ "name": "Eastleigh", "postcode": "SO50", "lat": 50.969, "lon": -1.350 },
{ "name": "Ebbw Vale", "postcode": "NP23", "lat": 51.777, "lon": -3.207 },
{ "name": "Eccles", "postcode": "M30", "lat": 53.484, "lon": -2.333 },
{ "name": "Edenbridge", "postcode": "TN8", "lat": 51.197, "lon": 0.059 },
{ "name": "Edgware", "postcode": "HA8", "lat": 51.618, "lon": -0.275 },
{ "name": "Edinburgh", "postcode": "EH1", "lat": 55.953, "lon": -3.189 },
{ "name": "Edlington", "postcode": "DN12", "lat": 53.480, "lon": -1.183 },
{ "name": "Edzell", "postcode": "DD9", "lat": 56.825, "lon": -2.650 },
{ "name": "Egham", "postcode": "TW20", "lat": 51.430, "lon": -0.547 },
{ "name": "Elgin", "postcode": "IV30", "lat": 57.649, "lon": -3.315 },
{ "name": "Ellesmere", "postcode": "SY12", "lat": 52.907, "lon": -2.893 },
{ "name": "Ellesmere Port", "postcode": "CH65", "lat": 53.283, "lon": -2.897 },
{ "name": "Ellon", "postcode": "AB41", "lat": 57.366, "lon": -2.073 },
{ "name": "Ely", "postcode": "CB7", "lat": 52.398, "lon": 0.262 },
{ "name": "Emsworth", "postcode": "PO10", "lat": 50.848, "lon": -0.938 },
{ "name": "Enfield", "postcode": "EN1", "lat": 51.651, "lon": -0.079 },
{ "name": "Epping", "postcode": "CM16", "lat": 51.701, "lon": 0.110 },
{ "name": "Epsom", "postcode": "KT18", "lat": 51.334, "lon": -0.270 },
{ "name": "Epworth", "postcode": "DN9", "lat": 53.526, "lon": -0.824 },
{ "name": "Erith", "postcode": "DA8", "lat": 51.481, "lon": 0.175 },
{ "name": "Erlestoke", "postcode": "SN10", "lat": 51.307, "lon": -2.040 },
{ "name": "Esher", "postcode": "KT10", "lat": 51.369, "lon": -0.365 },
{ "name": "Esh Winning", "postcode": "DH7", "lat": 54.780, "lon": -1.680 },
{ "name": "Eskbank", "postcode": "EH22", "lat": 55.880, "lon": -3.060 },
{ "name": "Eton", "postcode": "SL4", "lat": 51.487, "lon": -0.607 },
{ "name": "Evesham", "postcode": "WR11", "lat": 52.092, "lon": -1.948 },
{ "name": "Ewell", "postcode": "KT17", "lat": 51.349, "lon": -0.249 },
{ "name": "Exeter", "postcode": "EX1", "lat": 50.726, "lon": -3.533 },
{ "name": "Exmouth", "postcode": "EX8", "lat": 50.620, "lon": -3.413 },
{ "name": "Eyemouth", "postcode": "TD14", "lat": 55.871, "lon": -2.090 }, 
{ "name": "Fakenham", "postcode": "NR21", "lat": 52.830, "lon": 0.848 },
{ "name": "Falkirk", "postcode": "FK1", "lat": 56.001, "lon": -3.784 },
{ "name": "Falmouth", "postcode": "TR11", "lat": 50.153, "lon": -5.065 },
{ "name": "Fareham", "postcode": "PO16", "lat": 50.852, "lon": -1.179 },
{ "name": "Faringdon", "postcode": "SN7", "lat": 51.658, "lon": -1.586 },
{ "name": "Farnborough", "postcode": "GU14", "lat": 51.285, "lon": -0.755 },
{ "name": "Farnham", "postcode": "GU9", "lat": 51.214, "lon": -0.800 },
{ "name": "Farnworth", "postcode": "BL4", "lat": 53.545, "lon": -2.399 },
{ "name": "Faversham", "postcode": "ME13", "lat": 51.314, "lon": 0.891 },
{ "name": "Fazakerley", "postcode": "L10", "lat": 53.473, "lon": -2.948 },
{ "name": "Featherstone", "postcode": "WF7", "lat": 53.677, "lon": -1.356 },
{ "name": "Felixstowe", "postcode": "IP11", "lat": 51.964, "lon": 1.351 },
{ "name": "Ferndown", "postcode": "BH22", "lat": 50.804, "lon": -1.892 },
{ "name": "Ferryhill", "postcode": "DL17", "lat": 54.686, "lon": -1.538 },
{ "name": "Filey", "postcode": "YO14", "lat": 54.208, "lon": -0.292 },
{ "name": "Finchley", "postcode": "N12", "lat": 51.611, "lon": -0.178 },
{ "name": "Fishguard", "postcode": "SA65", "lat": 52.007, "lon": -4.980 },
{ "name": "Fleet", "postcode": "GU51", "lat": 51.282, "lon": -0.842 },
{ "name": "Fleetwood", "postcode": "FY7", "lat": 53.922, "lon": -3.015 },
{ "name": "Flint", "postcode": "CH6", "lat": 53.247, "lon": -3.132 },
{ "name": "Folkestone", "postcode": "CT20", "lat": 51.081, "lon": 1.169 },
{ "name": "Fordingbridge", "postcode": "SP6", "lat": 50.927, "lon": -1.792 },
{ "name": "Forfar", "postcode": "DD8", "lat": 56.644, "lon": -2.890 },
{ "name": "Forres", "postcode": "IV36", "lat": 57.609, "lon": -3.620 },
{ "name": "Fort William", "postcode": "PH33", "lat": 56.818, "lon": -5.105 },
{ "name": "Fortrose", "postcode": "IV10", "lat": 57.580, "lon": -4.130 },
{ "name": "Fowey", "postcode": "PL23", "lat": 50.336, "lon": -4.636 },
{ "name": "Framlingham", "postcode": "IP13", "lat": 52.223, "lon": 1.343 },
{ "name": "Fraserburgh", "postcode": "AB43", "lat": 57.693, "lon": -2.013 },
{ "name": "Frinton-on-Sea", "postcode": "CO13", "lat": 51.837, "lon": 1.244 },
{ "name": "Frizington", "postcode": "CA26", "lat": 54.541, "lon": -3.508 },
{ "name": "Frome", "postcode": "BA11", "lat": 51.230, "lon": -2.322 },
{ "name": "Fulham", "postcode": "SW6", "lat": 51.474, "lon": -0.201 },
{ "name": "Gainsborough", "postcode": "DN21", "lat": 53.399, "lon": -0.773 },
{ "name": "Galashiels", "postcode": "TD1", "lat": 55.619, "lon": -2.806 },
{ "name": "Garforth", "postcode": "LS25", "lat": 53.793, "lon": -1.380 },
{ "name": "Gateshead", "postcode": "NE8", "lat": 54.958, "lon": -1.606 },
{ "name": "Gatley", "postcode": "SK8", "lat": 53.390, "lon": -2.240 },
{ "name": "Gerrards Cross", "postcode": "SL9", "lat": 51.588, "lon": -0.555 },
{ "name": "Gillingham (Dorset)", "postcode": "SP8", "lat": 51.037, "lon": -2.274 },
{ "name": "Gillingham (Kent)", "postcode": "ME7", "lat": 51.386, "lon": 0.548 },
{ "name": "Girvan", "postcode": "KA26", "lat": 55.242, "lon": -4.855 },
{ "name": "Gisborne", "postcode": "TS14", "lat": 54.539, "lon": -1.056 },
{ "name": "Glasgow", "postcode": "G1", "lat": 55.860, "lon": -4.251 },
{ "name": "Glastonbury", "postcode": "BA6", "lat": 51.148, "lon": -2.717 },
{ "name": "Glenrothes", "postcode": "KY7", "lat": 56.200, "lon": -3.180 },
{ "name": "Glossop", "postcode": "SK13", "lat": 53.443, "lon": -1.949 },
{ "name": "Gloucester", "postcode": "GL1", "lat": 51.865, "lon": -2.243 },
{ "name": "Godalming", "postcode": "GU7", "lat": 51.185, "lon": -0.614 },
{ "name": "Godmanchester", "postcode": "PE29", "lat": 52.316, "lon": -0.171 },
{ "name": "Goole", "postcode": "DN14", "lat": 53.705, "lon": -0.871 },
{ "name": "Gorleston-on-Sea", "postcode": "NR31", "lat": 52.555, "lon": 1.730 },
{ "name": "Gorseinon", "postcode": "SA4", "lat": 51.669, "lon": -4.041 },
{ "name": "Gosport", "postcode": "PO12", "lat": 50.795, "lon": -1.129 },
{ "name": "Gourock", "postcode": "PA19", "lat": 55.961, "lon": -4.817 },
{ "name": "Grangemouth", "postcode": "FK3", "lat": 56.020, "lon": -3.720 },
{ "name": "Grantham", "postcode": "NG31", "lat": 52.912, "lon": -0.642 },
{ "name": "Grantown-on-Spey", "postcode": "PH26", "lat": 57.330, "lon": -3.610 },
{ "name": "Gravesend", "postcode": "DA11", "lat": 51.441, "lon": 0.370 },
{ "name": "Grays", "postcode": "RM17", "lat": 51.476, "lon": 0.327 },
{ "name": "Great Dunmow", "postcode": "CM6", "lat": 51.872, "lon": 0.363 },
{ "name": "Great Malvern", "postcode": "WR14", "lat": 52.111, "lon": -2.328 },
{ "name": "Great Torrington", "postcode": "EX38", "lat": 50.957, "lon": -4.144 },
{ "name": "Great Yarmouth", "postcode": "NR30", "lat": 52.608, "lon": 1.730 },
{ "name": "Greenock", "postcode": "PA15", "lat": 55.948, "lon": -4.761 },
{ "name": "Greenwich", "postcode": "SE10", "lat": 51.482, "lon": -0.007 },
{ "name": "Gretna", "postcode": "DG16", "lat": 55.003, "lon": -3.066 },
{ "name": "Grimsby", "postcode": "DN31", "lat": 53.565, "lon": -0.075 },
{ "name": "Grindleton", "postcode": "BB7", "lat": 53.900, "lon": -2.300 },
{ "name": "Guildford", "postcode": "GU1", "lat": 51.236, "lon": -0.570 },
{ "name": "Guisborough", "postcode": "TS14", "lat": 54.539, "lon": -1.056 },
{ "name": "Gullane", "postcode": "EH31", "lat": 56.037, "lon": -2.828 },
{ "name": "Gwersyllt", "postcode": "LL11", "lat": 53.072, "lon": -3.015 },
{ "name": "Hadleigh (Essex)", "postcode": "SS7", "lat": 51.552, "lon": 0.607 },
{ "name": "Hadleigh (Suffolk)", "postcode": "IP7", "lat": 52.044, "lon": 0.953 },
{ "name": "Hailsham", "postcode": "BN27", "lat": 50.862, "lon": 0.257 },
{ "name": "Halesowen", "postcode": "B63", "lat": 52.449, "lon": -2.049 },
{ "name": "Halesworth", "postcode": "IP19", "lat": 52.346, "lon": 1.505 },
{ "name": "Halifax", "postcode": "HX1", "lat": 53.726, "lon": -1.860 },
{ "name": "Halstead", "postcode": "CO9", "lat": 51.945, "lon": 0.635 },
{ "name": "Haltwhistle", "postcode": "NE49", "lat": 54.969, "lon": -2.463 },
{ "name": "Hamilton", "postcode": "ML3", "lat": 55.777, "lon": -4.053 },
{ "name": "Hammersmith", "postcode": "W6", "lat": 51.493, "lon": -0.228 },
{ "name": "Hampshire (Alton)", "postcode": "GU34", "lat": 51.151, "lon": -0.974 },
{ "name": "Hampton", "postcode": "TW12", "lat": 51.414, "lon": -0.372 },
{ "name": "Hampton-in-Arden", "postcode": "B92", "lat": 52.425, "lon": -1.701 },
{ "name": "Harlow", "postcode": "CM20", "lat": 51.772, "lon": 0.102 },
{ "name": "Harpenden", "postcode": "AL5", "lat": 51.817, "lon": -0.357 },
{ "name": "Harrogate", "postcode": "HG1", "lat": 53.992, "lon": -1.541 },
{ "name": "Harrietsham", "postcode": "ME17", "lat": 51.245, "lon": 0.690 },
{ "name": "Harrow", "postcode": "HA1", "lat": 51.580, "lon": -0.336 },
{ "name": "Hartlepool", "postcode": "TS24", "lat": 54.686, "lon": -1.212 },
{ "name": "Hartley Wintney", "postcode": "RG27", "lat": 51.303, "lon": -0.892 },
{ "name": "Harwich", "postcode": "CO12", "lat": 51.936, "lon": 1.284 },
{ "name": "Haslemere", "postcode": "GU27", "lat": 51.090, "lon": -0.708 },
{ "name": "Haslingden", "postcode": "BB4", "lat": 53.706, "lon": -2.323 },
{ "name": "Hastings", "postcode": "TN34", "lat": 50.855, "lon": 0.573 },
{ "name": "Hatfield", "postcode": "AL10", "lat": 51.763, "lon": -0.224 },
{ "name": "Havant", "postcode": "PO9", "lat": 50.856, "lon": -0.985 },
{ "name": "Haverfordwest", "postcode": "SA61", "lat": 51.801, "lon": -4.969 },
{ "name": "Haverhill", "postcode": "CB9", "lat": 52.083, "lon": 0.438 },
{ "name": "Hawick", "postcode": "TD9", "lat": 55.423, "lon": -2.786 },
{ "name": "Haxby", "postcode": "YO32", "lat": 54.016, "lon": -1.070 },
{ "name": "Hay-on-Wye", "postcode": "HR3", "lat": 52.075, "lon": -3.125 },
{ "name": "Haydock", "postcode": "WA11", "lat": 53.467, "lon": -2.670 },
{ "name": "Hayes", "postcode": "UB3", "lat": 51.512, "lon": -0.423 },
{ "name": "Hayle", "postcode": "TR27", "lat": 50.184, "lon": -5.422 },
{ "name": "Haywards Heath", "postcode": "RH16", "lat": 51.003, "lon": -0.102 },
{ "name": "Hazel Grove", "postcode": "SK7", "lat": 53.375, "lon": -2.143 },
{ "name": "Heanor", "postcode": "DE75", "lat": 53.013, "lon": -1.353 },
{ "name": "Heathfield", "postcode": "TN21", "lat": 50.967, "lon": 0.258 },
{ "name": "Hebburn", "postcode": "NE31", "lat": 54.969, "lon": -1.515 },
{ "name": "Hebden Bridge", "postcode": "HX7", "lat": 53.743, "lon": -2.015 },
{ "name": "Heckmondwike", "postcode": "WF16", "lat": 53.709, "lon": -1.677 },
{ "name": "Helensburgh", "postcode": "G84", "lat": 56.013, "lon": -4.732 },
{ "name": "Helston", "postcode": "TR13", "lat": 50.101, "lon": -5.273 },
{ "name": "Hemel Hempstead", "postcode": "HP1", "lat": 51.753, "lon": -0.471 },
{ "name": "Hemsworth", "postcode": "WF9", "lat": 53.612, "lon": -1.354 },
{ "name": "Hendon", "postcode": "NW4", "lat": 51.586, "lon": -0.238 },
{ "name": "Henley-in-Arden", "postcode": "B95", "lat": 52.291, "lon": -1.779 },
{ "name": "Henley-on-Thames", "postcode": "RG9", "lat": 51.537, "lon": -0.907 },
{ "name": "Hereford", "postcode": "HR1", "lat": 52.056, "lon": -2.716 },
{ "name": "Herne Bay", "postcode": "CT6", "lat": 51.373, "lon": 1.128 },
{ "name": "Hertford", "postcode": "SG14", "lat": 51.796, "lon": -0.078 },
{ "name": "Hessle", "postcode": "HU13", "lat": 53.724, "lon": -0.438 },
{ "name": "Hetton-le-Hole", "postcode": "DH5", "lat": 54.820, "lon": -1.450 },
{ "name": "Hexham", "postcode": "NE46", "lat": 54.973, "lon": -2.099 },
{ "name": "Heywood", "postcode": "OL10", "lat": 53.592, "lon": -2.219 },
{ "name": "High Wycombe", "postcode": "HP11", "lat": 51.628, "lon": -0.748 },
{ "name": "Higham Ferrers", "postcode": "NN10", "lat": 52.306, "lon": -0.597 },
{ "name": "Highworth", "postcode": "SN6", "lat": 51.630, "lon": -1.708 },
{ "name": "Hinckley", "postcode": "LE10", "lat": 52.541, "lon": -1.373 },
{ "name": "Hindhead", "postcode": "GU26", "lat": 51.113, "lon": -0.733 },
{ "name": "Hingham", "postcode": "NR9", "lat": 52.574, "lon": 0.984 },
{ "name": "Hitchin", "postcode": "SG5", "lat": 51.949, "lon": -0.278 },
{ "name": "Hoddesdon", "postcode": "EN11", "lat": 51.761, "lon": -0.013 },
{ "name": "Holbeach", "postcode": "PE12", "lat": 52.804, "lon": 0.015 },
{ "name": "Holmfirth", "postcode": "HD9", "lat": 53.569, "lon": -1.787 },
{ "name": "Holsworthy", "postcode": "EX22", "lat": 50.812, "lon": -4.355 },
{ "name": "Holyhead", "postcode": "LL65", "lat": 53.309, "lon": -4.633 },
{ "name": "Holywell", "postcode": "CH8", "lat": 53.273, "lon": -3.224 },
{ "name": "Honiton", "postcode": "EX14", "lat": 50.799, "lon": -3.188 },
{ "name": "Horley", "postcode": "RH6", "lat": 51.170, "lon": -0.159 },
{ "name": "Horncastle", "postcode": "LN9", "lat": 53.207, "lon": -0.117 },
{ "name": "Hornchurch", "postcode": "RM12", "lat": 51.556, "lon": 0.218 },
{ "name": "Horsham", "postcode": "RH12", "lat": 51.062, "lon": -0.327 },
{ "name": "Horwich", "postcode": "BL6", "lat": 53.601, "lon": -2.556 },
{ "name": "Houghton-le-Spring", "postcode": "DH4", "lat": 54.840, "lon": -1.460 },
{ "name": "Hove", "postcode": "BN3", "lat": 50.828, "lon": -0.175 },
{ "name": "Howden", "postcode": "DN14", "lat": 53.746, "lon": -0.865 },
{ "name": "Hoylake", "postcode": "CH47", "lat": 53.390, "lon": -3.178 },
{ "name": "Hoyland", "postcode": "S74", "lat": 53.498, "lon": -1.453 },
{ "name": "Hucknall", "postcode": "NG15", "lat": 53.034, "lon": -1.196 },
{ "name": "Huddersfield", "postcode": "HD1", "lat": 53.649, "lon": -1.782 },
{ "name": "Hughenden Valley", "postcode": "HP14", "lat": 51.674, "lon": -0.745 },
{ "name": "Hull (Kingston upon Hull)", "postcode": "HU1", "lat": 53.744, "lon": -0.340 },
{ "name": "Huntingdon", "postcode": "PE29", "lat": 52.330, "lon": -0.186 },
{ "name": "Huntly", "postcode": "AB54", "lat": 57.446, "lon": -2.787 },
{ "name": "Hyde", "postcode": "SK14", "lat": 53.451, "lon": -2.083 },
{ "name": "Hythe (Hampshire)", "postcode": "SO45", "lat": 50.863, "lon": -1.403 },
{ "name": "Hythe (Kent)", "postcode": "CT21", "lat": 51.071, "lon": 1.084 }, 
{ "name": "Ilfracombe", "postcode": "EX34", "lat": 51.210, "lon": -4.116 },
{ "name": "Ilkeston", "postcode": "DE7", "lat": 52.971, "lon": -1.309 },
{ "name": "Ilkley", "postcode": "LS29", "lat": 53.924, "lon": -1.823 },
{ "name": "Ilminster", "postcode": "TA19", "lat": 50.926, "lon": -2.909 },
{ "name": "Immingham", "postcode": "DN40", "lat": 53.614, "lon": -0.222 },
{ "name": "Ince-in-Makerfield", "postcode": "WN3", "lat": 53.533, "lon": -2.620 },
{ "name": "Ingatestone", "postcode": "CM4", "lat": 51.671, "lon": 0.383 },
{ "name": "Ingleby Barwick", "postcode": "TS17", "lat": 54.523, "lon": -1.307 },
{ "name": "Ingleton", "postcode": "LA6", "lat": 54.153, "lon": -2.470 },
{ "name": "Insch", "postcode": "AB52", "lat": 57.338, "lon": -2.615 },
{ "name": "Inveraray", "postcode": "PA32", "lat": 56.232, "lon": -5.073 },
{ "name": "Inverkeithing", "postcode": "KY11", "lat": 56.034, "lon": -3.395 },
{ "name": "Inverness", "postcode": "IV1", "lat": 57.477, "lon": -4.224 },
{ "name": "Inverurie", "postcode": "AB51", "lat": 57.284, "lon": -2.377 },
{ "name": "Ipswich", "postcode": "IP1", "lat": 52.056, "lon": 1.148 },
{ "name": "Irchester", "postcode": "NN29", "lat": 52.284, "lon": -0.645 },
{ "name": "Irlam", "postcode": "M44", "lat": 53.448, "lon": -2.423 },
{ "name": "Irthlingborough", "postcode": "NN9", "lat": 52.326, "lon": -0.605 },
{ "name": "Irvine", "postcode": "KA12", "lat": 55.619, "lon": -4.674 },
{ "name": "Isleworth", "postcode": "TW7", "lat": 51.474, "lon": -0.338 },
{ "name": "Islington", "postcode": "N1", "lat": 51.536, "lon": -0.103 },
{ "name": "Iver", "postcode": "SL0", "lat": 51.508, "lon": -0.507 },
{ "name": "Ivybridge", "postcode": "PL21", "lat": 50.390, "lon": -3.919 }, 
{ "name": "Jarrow", "postcode": "NE32", "lat": 54.967, "lon": -1.487 },
{ "name": "Jedburgh", "postcode": "TD8", "lat": 55.477, "lon": -2.553 },
{ "name": "Johnstone", "postcode": "PA5", "lat": 55.834, "lon": -4.516 },
{ "name": "Jarrow", "postcode": "NE32", "lat": 54.967, "lon": -1.487 },
{ "name": "Johnshaven", "postcode": "DD10", "lat": 56.837, "lon": -2.287 },
{ "name": "Knaresborough", "postcode": "HG5", "lat": 54.009, "lon": -1.468 },
{ "name": "Kendal", "postcode": "LA9", "lat": 54.329, "lon": -2.747 },
{ "name": "Kenilworth", "postcode": "CV8", "lat": 52.349, "lon": -1.582 },
{ "name": "Kesgrave", "postcode": "IP5", "lat": 52.062, "lon": 1.247 },
{ "name": "Keswick", "postcode": "CA12", "lat": 54.599, "lon": -3.138 },
{ "name": "Kettering", "postcode": "NN16", "lat": 52.398, "lon": -0.727 },
{ "name": "Keynsham", "postcode": "BS31", "lat": 51.413, "lon": -2.495 },
{ "name": "Kidderminster", "postcode": "DY10", "lat": 52.386, "lon": -2.249 },
{ "name": "Kidlington", "postcode": "OX5", "lat": 51.823, "lon": -1.288 },
{ "name": "Kidsgrove", "postcode": "ST7", "lat": 53.086, "lon": -2.244 },
{ "name": "Kilbirnie", "postcode": "KA25", "lat": 55.752, "lon": -4.687 },
{ "name": "Kilkeel", "postcode": "BT34", "lat": 54.060, "lon": -5.993 },
{ "name": "Killamarsh", "postcode": "S21", "lat": 53.316, "lon": -1.312 },
{ "name": "Kilmarnock", "postcode": "KA1", "lat": 55.611, "lon": -4.497 },
{ "name": "Kilsyth", "postcode": "G65", "lat": 55.975, "lon": -4.059 },
{ "name": "Kilwinning", "postcode": "KA13", "lat": 55.653, "lon": -4.708 },
{ "name": "King's Lynn", "postcode": "PE30", "lat": 52.753, "lon": 0.401 },
{ "name": "Kingsbridge", "postcode": "TQ7", "lat": 50.285, "lon": -3.776 },
{ "name": "Kinglassie", "postcode": "KY5", "lat": 56.165, "lon": -3.216 },
{ "name": "Kinghorn", "postcode": "KY3", "lat": 56.068, "lon": -3.176 },
{ "name": "Kinglassie", "postcode": "KY5", "lat": 56.165, "lon": -3.216 },
{ "name": "Kingston upon Thames", "postcode": "KT1", "lat": 51.412, "lon": -0.301 },
{ "name": "Kingswood", "postcode": "BS15", "lat": 51.457, "lon": -2.508 },
{ "name": "Kinross", "postcode": "KY13", "lat": 56.204, "lon": -3.421 },
{ "name": "Kintore", "postcode": "AB51", "lat": 57.238, "lon": -2.345 },
{ "name": "Kirkcaldy", "postcode": "KY1", "lat": 56.110, "lon": -3.159 },
{ "name": "Kirkby", "postcode": "L32", "lat": 53.481, "lon": -2.902 },
{ "name": "Kirkby Lonsdale", "postcode": "LA6", "lat": 54.203, "lon": -2.600 },
{ "name": "Kirkby Stephen", "postcode": "CA17", "lat": 54.473, "lon": -2.350 },
{ "name": "Kirkintilloch", "postcode": "G66", "lat": 55.939, "lon": -4.155 },
{ "name": "Kirkliston", "postcode": "EH29", "lat": 55.953, "lon": -3.400 },
{ "name": "Kirkwall", "postcode": "KW15", "lat": 58.984, "lon": -2.958 },
{ "name": "Kirriemuir", "postcode": "DD8", "lat": 56.673, "lon": -3.003 },
{ "name": "Knaresborough", "postcode": "HG5", "lat": 54.009, "lon": -1.468 },
{ "name": "Knighton", "postcode": "LD7", "lat": 52.343, "lon": -3.047 },
{ "name": "Knutsford", "postcode": "WA16", "lat": 53.301, "lon": -2.373 },
{ "name": "Kyle of Lochalsh", "postcode": "IV40", "lat": 57.279, "lon": -5.713 },
{ "name": "Lairg", "postcode": "IV27", "lat": 58.020, "lon": -4.400 },
{ "name": "Lambeth", "postcode": "SE1", "lat": 51.498, "lon": -0.117 },
{ "name": "Lampeter", "postcode": "SA48", "lat": 52.113, "lon": -4.079 },
{ "name": "Lanark", "postcode": "ML11", "lat": 55.673, "lon": -3.773 },
{ "name": "Lancaster", "postcode": "LA1", "lat": 54.047, "lon": -2.801 },
{ "name": "Lancing", "postcode": "BN15", "lat": 50.828, "lon": -0.322 },
{ "name": "Langport", "postcode": "TA10", "lat": 51.038, "lon": -2.828 },
{ "name": "Largs", "postcode": "KA30", "lat": 55.752, "lon": -4.867 },
{ "name": "Larkhall", "postcode": "ML9", "lat": 55.733, "lon": -3.972 },
{ "name": "Larbert", "postcode": "FK5", "lat": 56.022, "lon": -3.830 },
{ "name": "Larne", "postcode": "BT40", "lat": 54.854, "lon": -5.822 },
{ "name": "Lathom", "postcode": "L40", "lat": 53.590, "lon": -2.820 },
{ "name": "Lauder", "postcode": "TD2", "lat": 55.720, "lon": -2.747 },
{ "name": "Laugharne", "postcode": "SA33", "lat": 51.772, "lon": -4.462 },
{ "name": "Launceston", "postcode": "PL15", "lat": 50.637, "lon": -4.360 },
{ "name": "Laurencekirk", "postcode": "AB30", "lat": 56.835, "lon": -2.468 },
{ "name": "Leamington Spa", "postcode": "CV32", "lat": 52.292, "lon": -1.535 },
{ "name": "Leatherhead", "postcode": "KT22", "lat": 51.297, "lon": -0.329 },
{ "name": "Lechlade", "postcode": "GL7", "lat": 51.694, "lon": -1.691 },
{ "name": "Ledbury", "postcode": "HR8", "lat": 52.036, "lon": -2.423 },
{ "name": "Leeds", "postcode": "LS1", "lat": 53.799, "lon": -1.549 },
{ "name": "Leek", "postcode": "ST13", "lat": 53.104, "lon": -2.023 },
{ "name": "Leicester", "postcode": "LE1", "lat": 52.636, "lon": -1.139 },
{ "name": "Leigh", "postcode": "WN7", "lat": 53.497, "lon": -2.520 },
{ "name": "Leigh-on-Sea", "postcode": "SS9", "lat": 51.541, "lon": 0.658 },
{ "name": "Leighton Buzzard", "postcode": "LU7", "lat": 51.917, "lon": -0.660 },
{ "name": "Leiston", "postcode": "IP16", "lat": 52.206, "lon": 1.577 },
{ "name": "Leominster", "postcode": "HR6", "lat": 52.225, "lon": -2.744 },
{ "name": "Lerwick", "postcode": "ZE1", "lat": 60.155, "lon": -1.145 },
{ "name": "Letchworth", "postcode": "SG6", "lat": 51.979, "lon": -0.226 },
{ "name": "Letchworth Garden City", "postcode": "SG6", "lat": 51.979, "lon": -0.226 },
{ "name": "Lewes", "postcode": "BN7", "lat": 50.873, "lon": -0.008 },
{ "name": "Lewisham", "postcode": "SE13", "lat": 51.461, "lon": -0.010 },
{ "name": "Leyburn", "postcode": "DL8", "lat": 54.310, "lon": -1.828 },
{ "name": "Leyland", "postcode": "PR25", "lat": 53.697, "lon": -2.693 },
{ "name": "Lichfield", "postcode": "WS13", "lat": 52.683, "lon": -1.826 },
{ "name": "Lidlington", "postcode": "MK43", "lat": 52.028, "lon": -0.589 },
{ "name": "Lifton", "postcode": "PL16", "lat": 50.644, "lon": -4.278 },
{ "name": "Limavady", "postcode": "BT49", "lat": 55.051, "lon": -6.949 },
{ "name": "Lincoln", "postcode": "LN1", "lat": 53.234, "lon": -0.538 },
{ "name": "Lindfield", "postcode": "RH16", "lat": 51.003, "lon": -0.081 },
{ "name": "Linton", "postcode": "CB21", "lat": 52.082, "lon": 0.329 },
{ "name": "Liskeard", "postcode": "PL14", "lat": 50.454, "lon": -4.464 },
{ "name": "Lisburn", "postcode": "BT28", "lat": 54.516, "lon": -6.046 },
{ "name": "Liskeard", "postcode": "PL14", "lat": 50.454, "lon": -4.464 },
{ "name": "Littlehampton", "postcode": "BN17", "lat": 50.804, "lon": -0.540 },
{ "name": "Littleborough", "postcode": "OL15", "lat": 53.645, "lon": -2.112 },
{ "name": "Liverpool", "postcode": "L1", "lat": 53.407, "lon": -2.991 },
{ "name": "Liversedge", "postcode": "WF15", "lat": 53.709, "lon": -1.690 },
{ "name": "Livingston", "postcode": "EH54", "lat": 55.886, "lon": -3.515 },
{ "name": "Llanberis", "postcode": "LL55", "lat": 53.118, "lon": -4.127 },
{ "name": "Llandrindod Wells", "postcode": "LD1", "lat": 52.242, "lon": -3.379 },
{ "name": "Llandudno", "postcode": "LL30", "lat": 53.324, "lon": -3.827 },
{ "name": "Llanelli", "postcode": "SA15", "lat": 51.682, "lon": -4.158 },
{ "name": "Llanfairfechan", "postcode": "LL33", "lat": 53.256, "lon": -3.983 },
{ "name": "Llanfyllin", "postcode": "SY22", "lat": 52.765, "lon": -3.272 },
{ "name": "Llangollen", "postcode": "LL20", "lat": 52.969, "lon": -3.171 },
{ "name": "Llanidloes", "postcode": "SY18", "lat": 52.448, "lon": -3.540 },
{ "name": "Llanrwst", "postcode": "LL26", "lat": 53.139, "lon": -3.794 },
{ "name": "Llantwit Major", "postcode": "CF61", "lat": 51.409, "lon": -3.486 },
{ "name": "Llay", "postcode": "LL12", "lat": 53.100, "lon": -3.010 },
{ "name": "Loanhead", "postcode": "EH20", "lat": 55.879, "lon": -3.158 },
{ "name": "Lochgelly", "postcode": "KY5", "lat": 56.128, "lon": -3.309 },
{ "name": "Lochgilphead", "postcode": "PA31", "lat": 56.037, "lon": -5.435 },
{ "name": "Lochwinnoch", "postcode": "PA12", "lat": 55.795, "lon": -4.630 },
{ "name": "Lockerbie", "postcode": "DG11", "lat": 55.123, "lon": -3.356 },
{ "name": "London", "postcode": "EC1", "lat": 51.507, "lon": -0.128 },
{ "name": "Long Eaton", "postcode": "NG10", "lat": 52.898, "lon": -1.271 },
{ "name": "Long Sutton", "postcode": "PE12", "lat": 52.786, "lon": 0.121 },
{ "name": "Longridge", "postcode": "PR3", "lat": 53.832, "lon": -2.600 },
{ "name": "Longtown", "postcode": "CA6", "lat": 55.011, "lon": -2.968 },
{ "name": "Looe", "postcode": "PL13", "lat": 50.357, "lon": -4.454 },
{ "name": "Lossiemouth", "postcode": "IV31", "lat": 57.721, "lon": -3.300 },
{ "name": "Lostwithiel", "postcode": "PL22", "lat": 50.409, "lon": -4.671 },
{ "name": "Loughborough", "postcode": "LE11", "lat": 52.770, "lon": -1.204 },
{ "name": "Loughton", "postcode": "IG10", "lat": 51.641, "lon": 0.055 },
{ "name": "Lowestoft", "postcode": "NR32", "lat": 52.475, "lon": 1.751 },
{ "name": "Ludlow", "postcode": "SY8", "lat": 52.373, "lon": -2.717 },
{ "name": "Lurgan", "postcode": "BT66", "lat": 54.466, "lon": -6.338 },
{ "name": "Luton", "postcode": "LU1", "lat": 51.879, "lon": -0.417 },
{ "name": "Lutterworth", "postcode": "LE17", "lat": 52.456, "lon": -1.202 },
{ "name": "Lydney", "postcode": "GL15", "lat": 51.726, "lon": -2.530 },
{ "name": "Lye", "postcode": "DY9", "lat": 52.459, "lon": -2.113 },
{ "name": "Macclesfield", "postcode": "SK10", "lat": 53.259, "lon": -2.125 },
{ "name": "Machynlleth", "postcode": "SY20", "lat": 52.590, "lon": -3.853 },
{ "name": "Maesteg", "postcode": "CF34", "lat": 51.609, "lon": -3.655 },
{ "name": "Magherafelt", "postcode": "BT45", "lat": 54.843, "lon": -6.606 },
{ "name": "Maghull", "postcode": "L31", "lat": 53.516, "lon": -2.941 },
{ "name": "Maidenhead", "postcode": "SL6", "lat": 51.522, "lon": -0.719 },
{ "name": "Maidstone", "postcode": "ME14", "lat": 51.273, "lon": 0.521 },
{ "name": "Maldon", "postcode": "CM9", "lat": 51.731, "lon": 0.677 },
{ "name": "Malmesbury", "postcode": "SN16", "lat": 51.582, "lon": -2.097 },
{ "name": "Malton", "postcode": "YO17", "lat": 54.136, "lon": -0.796 },
{ "name": "Malvern", "postcode": "WR14", "lat": 52.111, "lon": -2.328 },
{ "name": "Manchester", "postcode": "M1", "lat": 53.480, "lon": -2.242 },
{ "name": "Manningtree", "postcode": "CO11", "lat": 51.945, "lon": 1.063 },
{ "name": "Mansfield", "postcode": "NG18", "lat": 53.144, "lon": -1.199 },
{ "name": "March", "postcode": "PE15", "lat": 52.551, "lon": 0.088 },
{ "name": "Margate", "postcode": "CT9", "lat": 51.385, "lon": 1.376 },
{ "name": "Market Deeping", "postcode": "PE6", "lat": 52.676, "lon": -0.316 },
{ "name": "Market Drayton", "postcode": "TF9", "lat": 52.904, "lon": -2.490 },
{ "name": "Market Harborough", "postcode": "LE16", "lat": 52.477, "lon": -0.920 },
{ "name": "Market Rasen", "postcode": "LN8", "lat": 53.387, "lon": -0.337 },
{ "name": "Markethill", "postcode": "BT60", "lat": 54.290, "lon": -6.533 },
{ "name": "Marlborough", "postcode": "SN8", "lat": 51.421, "lon": -1.729 },
{ "name": "Marple", "postcode": "SK6", "lat": 53.394, "lon": -2.064 },
{ "name": "Marske-by-the-Sea", "postcode": "TS11", "lat": 54.590, "lon": -1.020 },
{ "name": "Maryport", "postcode": "CA15", "lat": 54.714, "lon": -3.495 },
{ "name": "Matlock", "postcode": "DE4", "lat": 53.138, "lon": -1.555 },
{ "name": "Maybole", "postcode": "KA19", "lat": 55.355, "lon": -4.680 },
{ "name": "Meadowfield", "postcode": "DH7", "lat": 54.750, "lon": -1.620 },
{ "name": "Measham", "postcode": "DE12", "lat": 52.706, "lon": -1.509 },
{ "name": "Medlar-with-Wesham", "postcode": "PR4", "lat": 53.789, "lon": -2.900 },
{ "name": "Melksham", "postcode": "SN12", "lat": 51.372, "lon": -2.140 },
{ "name": "Melrose", "postcode": "TD6", "lat": 55.599, "lon": -2.720 },
{ "name": "Melton Mowbray", "postcode": "LE13", "lat": 52.764, "lon": -0.889 },
{ "name": "Menai Bridge", "postcode": "LL59", "lat": 53.226, "lon": -4.163 },
{ "name": "Merthyr Tydfil", "postcode": "CF47", "lat": 51.743, "lon": -3.378 },
{ "name": "Mexborough", "postcode": "S64", "lat": 53.493, "lon": -1.292 },
{ "name": "Middlewich", "postcode": "CW10", "lat": 53.193, "lon": -2.444 },
{ "name": "Middlesbrough", "postcode": "TS1", "lat": 54.576, "lon": -1.234 },
{ "name": "Middleton", "postcode": "M24", "lat": 53.554, "lon": -2.197 },
{ "name": "Midhurst", "postcode": "GU29", "lat": 50.987, "lon": -0.740 },
{ "name": "Midsomer Norton", "postcode": "BA3", "lat": 51.285, "lon": -2.483 },
{ "name": "Milford Haven", "postcode": "SA73", "lat": 51.712, "lon": -5.037 },
{ "name": "Millom", "postcode": "LA18", "lat": 54.210, "lon": -3.272 },
{ "name": "Milltimber", "postcode": "AB13", "lat": 57.117, "lon": -2.240 },
{ "name": "Milngavie", "postcode": "G62", "lat": 55.940, "lon": -4.323 },
{ "name": "Milton Keynes", "postcode": "MK9", "lat": 52.041, "lon": -0.759 },
{ "name": "Minehead", "postcode": "TA24", "lat": 51.204, "lon": -3.478 },
{ "name": "Mirfield", "postcode": "WF14", "lat": 53.673, "lon": -1.693 },
{ "name": "Mitcham", "postcode": "CR4", "lat": 51.402, "lon": -0.163 },
{ "name": "Mitcheldean", "postcode": "GL17", "lat": 51.865, "lon": -2.490 },
{ "name": "Modbury", "postcode": "PL21", "lat": 50.349, "lon": -3.886 },
{ "name": "Moffat", "postcode": "DG10", "lat": 55.332, "lon": -3.442 },
{ "name": "Mold", "postcode": "CH7", "lat": 53.167, "lon": -3.140 },
{ "name": "Monifieth", "postcode": "DD5", "lat": 56.482, "lon": -2.820 },
{ "name": "Monmouth", "postcode": "NP25", "lat": 51.812, "lon": -2.713 },
{ "name": "Montrose", "postcode": "DD10", "lat": 56.716, "lon": -2.466 },
{ "name": "Morecambe", "postcode": "LA4", "lat": 54.073, "lon": -2.870 },
{ "name": "Moreton-in-Marsh", "postcode": "GL56", "lat": 51.991, "lon": -1.703 },
{ "name": "Morley", "postcode": "LS27", "lat": 53.743, "lon": -1.602 },
{ "name": "Morpeth", "postcode": "NE61", "lat": 55.169, "lon": -1.683 },
{ "name": "Motherwell", "postcode": "ML1", "lat": 55.789, "lon": -3.994 },
{ "name": "Mountain Ash", "postcode": "CF45", "lat": 51.683, "lon": -3.380 },
{ "name": "Much Wenlock", "postcode": "TF13", "lat": 52.597, "lon": -2.557 },
{ "name": "Musselburgh", "postcode": "EH21", "lat": 55.944, "lon": -3.056 },
{ "name": "Mytholmroyd", "postcode": "HX7", "lat": 53.730, "lon": -1.982 },
{ "name": "Nailsea", "postcode": "BS48", "lat": 51.432, "lon": -2.758 },
{ "name": "Nairn", "postcode": "IV12", "lat": 57.580, "lon": -3.880 },
{ "name": "Nantwich", "postcode": "CW5", "lat": 53.068, "lon": -2.523 },
{ "name": "Narberth", "postcode": "SA67", "lat": 51.799, "lon": -4.742 },
{ "name": "Neath", "postcode": "SA11", "lat": 51.663, "lon": -3.806 },
{ "name": "Needham Market", "postcode": "IP6", "lat": 52.159, "lon": 1.055 },
{ "name": "Nefyn", "postcode": "LL53", "lat": 52.934, "lon": -4.522 },
{ "name": "Nelson", "postcode": "BB9", "lat": 53.836, "lon": -2.213 },
{ "name": "Neston", "postcode": "CH64", "lat": 53.290, "lon": -3.040 },
{ "name": "New Alresford", "postcode": "SO24", "lat": 51.086, "lon": -1.162 },
{ "name": "New Mills", "postcode": "SK22", "lat": 53.365, "lon": -1.999 },
{ "name": "New Milton", "postcode": "BH25", "lat": 50.755, "lon": -1.665 },
{ "name": "New Romney", "postcode": "TN28", "lat": 50.985, "lon": 0.940 },
{ "name": "Newark-on-Trent", "postcode": "NG24", "lat": 53.076, "lon": -0.809 },
{ "name": "Newbiggin-by-the-Sea", "postcode": "NE64", "lat": 55.185, "lon": -1.516 },
{ "name": "Newbridge", "postcode": "NP11", "lat": 51.664, "lon": -3.144 },
{ "name": "Newbury", "postcode": "RG14", "lat": 51.401, "lon": -1.323 },
{ "name": "Newcastle Emlyn", "postcode": "SA38", "lat": 52.039, "lon": -4.466 },
{ "name": "Newcastle-under-Lyme", "postcode": "ST5", "lat": 53.013, "lon": -2.227 },
{ "name": "Newcastle upon Tyne", "postcode": "NE1", "lat": 54.973, "lon": -1.613 },
{ "name": "Newent", "postcode": "GL18", "lat": 51.928, "lon": -2.408 },
{ "name": "Newhaven", "postcode": "BN9", "lat": 50.794, "lon": 0.055 },
{ "name": "Newmarket", "postcode": "CB8", "lat": 52.244, "lon": 0.404 },
{ "name": "Newport (Gwent)", "postcode": "NP20", "lat": 51.588, "lon": -2.997 },
{ "name": "Newport (Isle of Wight)", "postcode": "PO30", "lat": 50.699, "lon": -1.297 },
{ "name": "Newport Pagnell", "postcode": "MK16", "lat": 52.086, "lon": -0.722 },
{ "name": "Newquay", "postcode": "TR7", "lat": 50.415, "lon": -5.075 },
{ "name": "Newry", "postcode": "BT35", "lat": 54.178, "lon": -6.337 },
{ "name": "Newton Abbot", "postcode": "TQ12", "lat": 50.532, "lon": -3.611 },
{ "name": "Newton Aycliffe", "postcode": "DL5", "lat": 54.618, "lon": -1.571 },
{ "name": "Newton-le-Willows", "postcode": "WA12", "lat": 53.454, "lon": -2.628 },
{ "name": "Newton Mearns", "postcode": "G77", "lat": 55.773, "lon": -4.333 },
{ "name": "Newtown", "postcode": "SY16", "lat": 52.516, "lon": -3.306 },
{ "name": "Newtownards", "postcode": "BT23", "lat": 54.592, "lon": -5.693 },
{ "name": "Neyland", "postcode": "SA73", "lat": 51.710, "lon": -4.950 },
{ "name": "Normanton", "postcode": "WF6", "lat": 53.700, "lon": -1.413 },
{ "name": "North Berwick", "postcode": "EH39", "lat": 56.058, "lon": -2.722 },
{ "name": "North Hykeham", "postcode": "LN6", "lat": 53.195, "lon": -0.600 },
{ "name": "North Shields", "postcode": "NE29", "lat": 55.009, "lon": -1.449 },
{ "name": "North Walsham", "postcode": "NR28", "lat": 52.820, "lon": 1.387 },
{ "name": "Northallerton", "postcode": "DL7", "lat": 54.340, "lon": -1.432 },
{ "name": "Northam", "postcode": "EX39", "lat": 51.037, "lon": -4.217 },
{ "name": "Northampton", "postcode": "NN1", "lat": 52.240, "lon": -0.902 },
{ "name": "Northfleet", "postcode": "DA11", "lat": 51.441, "lon": 0.330 },
{ "name": "Northleach", "postcode": "GL54", "lat": 51.829, "lon": -1.837 },
{ "name": "Northwich", "postcode": "CW9", "lat": 53.260, "lon": -2.512 },
{ "name": "Northwood", "postcode": "HA6", "lat": 51.611, "lon": -0.424 },
{ "name": "Norton", "postcode": "TS20", "lat": 54.587, "lon": -1.307 },
{ "name": "Norwich", "postcode": "NR1", "lat": 52.628, "lon": 1.299 },
{ "name": "Nottingham", "postcode": "NG1", "lat": 52.954, "lon": -1.158 },
{ "name": "Nuneaton", "postcode": "CV11", "lat": 52.523, "lon": -1.465 },
{ "name": "Oakham", "postcode": "LE15", "lat": 52.672, "lon": -0.732 },
{ "name": "Oakengates", "postcode": "TF2", "lat": 52.693, "lon": -2.449 },
{ "name": "Oakworth", "postcode": "BD22", "lat": 53.845, "lon": -1.986 },
{ "name": "Oban", "postcode": "PA34", "lat": 56.412, "lon": -5.473 },
{ "name": "Okehampton", "postcode": "EX20", "lat": 50.738, "lon": -3.990 },
{ "name": "Oldbury", "postcode": "B68", "lat": 52.500, "lon": -2.015 },
{ "name": "Oldham", "postcode": "OL1", "lat": 53.541, "lon": -2.111 },
{ "name": "Ollerton", "postcode": "NG22", "lat": 53.205, "lon": -1.015 },
{ "name": "Olney", "postcode": "MK46", "lat": 52.160, "lon": -0.702 },
{ "name": "Omagh", "postcode": "BT78", "lat": 54.600, "lon": -7.300 },
{ "name": "Orford", "postcode": "IP12", "lat": 52.095, "lon": 1.540 },
{ "name": "Orkney (Kirkwall)", "postcode": "KW15", "lat": 58.984, "lon": -2.958 },
{ "name": "Ormskirk", "postcode": "L39", "lat": 53.569, "lon": -2.881 },
{ "name": "Orpington", "postcode": "BR6", "lat": 51.373, "lon": 0.099 },
{ "name": "Ossett", "postcode": "WF5", "lat": 53.680, "lon": -1.580 },
{ "name": "Oswestry", "postcode": "SY11", "lat": 52.861, "lon": -3.055 },
{ "name": "Otley", "postcode": "LS21", "lat": 53.905, "lon": -1.693 },
{ "name": "Ottery St Mary", "postcode": "EX11", "lat": 50.750, "lon": -3.280 },
{ "name": "Oundle", "postcode": "PE8", "lat": 52.480, "lon": -0.470 },
{ "name": "Oxford", "postcode": "OX1", "lat": 51.752, "lon": -1.257 },
{ "name": "Paddock Wood", "postcode": "TN12", "lat": 51.181, "lon": 0.386 },
{ "name": "Padiham", "postcode": "BB12", "lat": 53.801, "lon": -2.315 },
{ "name": "Paignton", "postcode": "TQ3", "lat": 50.437, "lon": -3.567 },
{ "name": "Paisley", "postcode": "PA1", "lat": 55.846, "lon": -4.423 },
{ "name": "Pakenham", "postcode": "IP31", "lat": 52.300, "lon": 0.850 },
{ "name": "Pangbourne", "postcode": "RG8", "lat": 51.484, "lon": -1.085 },
{ "name": "Pannal", "postcode": "HG3", "lat": 53.967, "lon": -1.540 },
{ "name": "Par", "postcode": "PL24", "lat": 50.352, "lon": -4.706 },
{ "name": "Parkgate", "postcode": "CH64", "lat": 53.294, "lon": -3.078 },
{ "name": "Partick", "postcode": "G11", "lat": 55.870, "lon": -4.309 },
{ "name": "Parton", "postcode": "CA28", "lat": 54.563, "lon": -3.580 },
{ "name": "Patchway", "postcode": "BS34", "lat": 51.540, "lon": -2.572 },
{ "name": "Pateley Bridge", "postcode": "HG3", "lat": 54.090, "lon": -1.758 },
{ "name": "Patna", "postcode": "KA6", "lat": 55.391, "lon": -4.415 },
{ "name": "Peacehaven", "postcode": "BN10", "lat": 50.792, "lon": -0.006 },
{ "name": "Peebles", "postcode": "EH45", "lat": 55.653, "lon": -3.193 },
{ "name": "Pembroke", "postcode": "SA71", "lat": 51.675, "lon": -4.915 },
{ "name": "Pembroke Dock", "postcode": "SA72", "lat": 51.691, "lon": -4.940 },
{ "name": "Penarth", "postcode": "CF64", "lat": 51.437, "lon": -3.176 },
{ "name": "Pencoed", "postcode": "CF35", "lat": 51.523, "lon": -3.501 },
{ "name": "Pendlebury", "postcode": "M27", "lat": 53.508, "lon": -2.326 },
{ "name": "Penicuik", "postcode": "EH26", "lat": 55.831, "lon": -3.226 },
{ "name": "Penistone", "postcode": "S36", "lat": 53.525, "lon": -1.630 },
{ "name": "Penkridge", "postcode": "ST19", "lat": 52.722, "lon": -2.119 },
{ "name": "Penmaenmawr", "postcode": "LL34", "lat": 53.270, "lon": -3.930 },
{ "name": "Penrith", "postcode": "CA11", "lat": 54.665, "lon": -2.758 },
{ "name": "Penryn", "postcode": "TR10", "lat": 50.168, "lon": -5.106 },
{ "name": "Penzance", "postcode": "TR18", "lat": 50.119, "lon": -5.537 },
{ "name": "Pershore", "postcode": "WR10", "lat": 52.110, "lon": -2.075 },
{ "name": "Perth", "postcode": "PH1", "lat": 56.396, "lon": -3.437 },
{ "name": "Peterborough", "postcode": "PE1", "lat": 52.573, "lon": -0.243 },
{ "name": "Peterhead", "postcode": "AB42", "lat": 57.508, "lon": -1.780 },
{ "name": "Petersfield", "postcode": "GU32", "lat": 51.003, "lon": -0.933 },
{ "name": "Petworth", "postcode": "GU28", "lat": 50.986, "lon": -0.611 },
{ "name": "Pickering", "postcode": "YO18", "lat": 54.248, "lon": -0.779 },
{ "name": "Pinner", "postcode": "HA5", "lat": 51.594, "lon": -0.385 },
{ "name": "Pitlochry", "postcode": "PH16", "lat": 56.705, "lon": -3.734 },
{ "name": "Pittenweem", "postcode": "KY10", "lat": 56.213, "lon": -2.733 },
{ "name": "Plymouth", "postcode": "PL1", "lat": 50.371, "lon": -4.142 },
{ "name": "Pocklington", "postcode": "YO42", "lat": 53.933, "lon": -0.780 },
{ "name": "Polegate", "postcode": "BN26", "lat": 50.821, "lon": 0.245 },
{ "name": "Pollokshaws", "postcode": "G43", "lat": 55.822, "lon": -4.284 },
{ "name": "Polmont", "postcode": "FK2", "lat": 55.990, "lon": -3.710 },
{ "name": "Pontefract", "postcode": "WF8", "lat": 53.691, "lon": -1.312 },
{ "name": "Ponteland", "postcode": "NE20", "lat": 55.051, "lon": -1.745 },
{ "name": "Pontllanfraith", "postcode": "NP12", "lat": 51.645, "lon": -3.200 },
{ "name": "Pontypridd", "postcode": "CF37", "lat": 51.602, "lon": -3.342 },
{ "name": "Poole", "postcode": "BH15", "lat": 50.717, "lon": -1.981 },
{ "name": "Port Glasgow", "postcode": "PA14", "lat": 55.934, "lon": -4.689 },
{ "name": "Port Talbot", "postcode": "SA13", "lat": 51.592, "lon": -3.780 },
{ "name": "Portadown", "postcode": "BT62", "lat": 54.422, "lon": -6.444 },
{ "name": "Portchester", "postcode": "PO16", "lat": 50.846, "lon": -1.124 },
{ "name": "Portishead", "postcode": "BS20", "lat": 51.484, "lon": -2.768 },
{ "name": "Portland", "postcode": "DT5", "lat": 50.567, "lon": -2.442 },
{ "name": "Portree", "postcode": "IV51", "lat": 57.412, "lon": -6.194 },
{ "name": "Portrush", "postcode": "BT56", "lat": 55.206, "lon": -6.652 },
{ "name": "Portslade", "postcode": "BN41", "lat": 50.834, "lon": -0.216 },
{ "name": "Portsoy", "postcode": "AB45", "lat": 57.683, "lon": -2.690 },
{ "name": "Portstewart", "postcode": "BT55", "lat": 55.181, "lon": -6.718 },
{ "name": "Portsmouth", "postcode": "PO1", "lat": 50.798, "lon": -1.091 },
{ "name": "Potters Bar", "postcode": "EN6", "lat": 51.697, "lon": -0.194 },
{ "name": "Poulton-le-Fylde", "postcode": "FY6", "lat": 53.848, "lon": -2.991 },
{ "name": "Poynton", "postcode": "SK12", "lat": 53.350, "lon": -2.118 },
{ "name": "Prestatyn", "postcode": "LL19", "lat": 53.337, "lon": -3.405 },
{ "name": "Presteigne", "postcode": "LD8", "lat": 52.271, "lon": -3.005 },
{ "name": "Prestwich", "postcode": "M25", "lat": 53.533, "lon": -2.283 },
{ "name": "Preston", "postcode": "PR1", "lat": 53.763, "lon": -2.703 },
{ "name": "Prestwick", "postcode": "KA9", "lat": 55.501, "lon": -4.614 },
{ "name": "Princes Risborough", "postcode": "HP27", "lat": 51.724, "lon": -0.833 },
{ "name": "Prudhoe", "postcode": "NE42", "lat": 54.966, "lon": -1.855 },
{ "name": "Pudsey", "postcode": "LS28", "lat": 53.797, "lon": -1.663 },
{ "name": "Pwllheli", "postcode": "LL53", "lat": 52.888, "lon": -4.417 },
{ "name": "Quainton", "postcode": "HP22", "lat": 51.874, "lon": -0.918 },
{ "name": "Quarndon", "postcode": "DE22", "lat": 52.966, "lon": -1.515 },
{ "name": "Quarry Bank", "postcode": "DY5", "lat": 52.475, "lon": -2.112 },
{ "name": "Queenborough", "postcode": "ME11", "lat": 51.417, "lon": 0.742 },
{ "name": "Queensferry (Flintshire)", "postcode": "CH5", "lat": 53.205, "lon": -3.020 },
{ "name": "Queensferry (Edinburgh)", "postcode": "EH30", "lat": 55.990, "lon": -3.398 },
{ "name": "Quedgeley", "postcode": "GL2", "lat": 51.820, "lon": -2.280 },
{ "name": "Quorn", "postcode": "LE12", "lat": 52.744, "lon": -1.170 },
{ "name": "Radcliffe", "postcode": "M26", "lat": 53.561, "lon": -2.328 },
{ "name": "Radlett", "postcode": "WD7", "lat": 51.685, "lon": -0.317 },
{ "name": "Radstock", "postcode": "BA3", "lat": 51.286, "lon": -2.460 },
{ "name": "Rainham (Essex)", "postcode": "RM13", "lat": 51.516, "lon": 0.189 },
{ "name": "Rainham (Kent)", "postcode": "ME8", "lat": 51.364, "lon": 0.611 },
{ "name": "Rainhill", "postcode": "L35", "lat": 53.414, "lon": -2.765 },
{ "name": "Ramsbottom", "postcode": "BL0", "lat": 53.647, "lon": -2.316 },
{ "name": "Ramsgate", "postcode": "CT11", "lat": 51.335, "lon": 1.417 },
{ "name": "Randalstown", "postcode": "BT41", "lat": 54.750, "lon": -6.300 },
{ "name": "Raunds", "postcode": "NN9", "lat": 52.344, "lon": -0.535 },
{ "name": "Rawtenstall", "postcode": "BB4", "lat": 53.703, "lon": -2.290 },
{ "name": "Rayleigh", "postcode": "SS6", "lat": 51.587, "lon": 0.604 },
{ "name": "Reading", "postcode": "RG1", "lat": 51.456, "lon": -0.971 },
{ "name": "Redcar", "postcode": "TS10", "lat": 54.616, "lon": -1.067 },
{ "name": "Redditch", "postcode": "B97", "lat": 52.306, "lon": -1.945 },
{ "name": "Redhill", "postcode": "RH1", "lat": 51.240, "lon": -0.170 },
{ "name": "Redruth", "postcode": "TR15", "lat": 50.233, "lon": -5.227 },
{ "name": "Reigate", "postcode": "RH2", "lat": 51.237, "lon": -0.205 },
{ "name": "Renfrew", "postcode": "PA4", "lat": 55.879, "lon": -4.387 },
{ "name": "Retford", "postcode": "DN22", "lat": 53.322, "lon": -0.945 },
{ "name": "Rhayader", "postcode": "LD6", "lat": 52.301, "lon": -3.510 },
{ "name": "Rhuddlan", "postcode": "LL18", "lat": 53.293, "lon": -3.468 },
{ "name": "Rhyl", "postcode": "LL18", "lat": 53.319, "lon": -3.491 },
{ "name": "Richhill", "postcode": "BT61", "lat": 54.400, "lon": -6.550 },
{ "name": "Richmond (London)", "postcode": "TW9", "lat": 51.461, "lon": -0.303 },
{ "name": "Richmond (North Yorkshire)", "postcode": "DL10", "lat": 54.404, "lon": -1.737 },
{ "name": "Rickmansworth", "postcode": "WD3", "lat": 51.640, "lon": -0.473 },
{ "name": "Riddings", "postcode": "DE55", "lat": 53.080, "lon": -1.390 },
{ "name": "Ringwood", "postcode": "BH24", "lat": 50.846, "lon": -1.792 },
{ "name": "Ripley", "postcode": "DE5", "lat": 53.049, "lon": -1.408 },
{ "name": "Ripon", "postcode": "HG4", "lat": 54.136, "lon": -1.521 },
{ "name": "Risca", "postcode": "NP11", "lat": 51.607, "lon": -3.100 },
{ "name": "Rishton", "postcode": "BB1", "lat": 53.766, "lon": -2.430 },
{ "name": "Rochdale", "postcode": "OL16", "lat": 53.617, "lon": -2.155 },
{ "name": "Rochester", "postcode": "ME1", "lat": 51.389, "lon": 0.505 },
{ "name": "Rochford", "postcode": "SS4", "lat": 51.582, "lon": 0.706 },
{ "name": "Romford", "postcode": "RM1", "lat": 51.576, "lon": 0.182 },
{ "name": "Romsey", "postcode": "SO51", "lat": 50.989, "lon": -1.499 },
{ "name": "Ross-on-Wye", "postcode": "HR9", "lat": 51.916, "lon": -2.585 },
{ "name": "Rossendale", "postcode": "BB4", "lat": 53.693, "lon": -2.284 },
{ "name": "Rostrevor", "postcode": "BT34", "lat": 54.100, "lon": -6.200 },
{ "name": "Rotherham", "postcode": "S60", "lat": 53.430, "lon": -1.356 },
{ "name": "Rothesay", "postcode": "PA20", "lat": 55.835, "lon": -5.055 },
{ "name": "Rothwell (Leeds)", "postcode": "LS26", "lat": 53.749, "lon": -1.480 },
{ "name": "Rothwell (Northants)", "postcode": "NN14", "lat": 52.420, "lon": -0.800 },
{ "name": "Rowlands Gill", "postcode": "NE39", "lat": 54.922, "lon": -1.744 },
{ "name": "Rowley Regis", "postcode": "B65", "lat": 52.482, "lon": -2.046 },
{ "name": "Royton", "postcode": "OL2", "lat": 53.565, "lon": -2.123 },
{ "name": "Royston", "postcode": "SG8", "lat": 52.048, "lon": -0.027 },
{ "name": "Rugby", "postcode": "CV21", "lat": 52.372, "lon": -1.265 },
{ "name": "Rugeley", "postcode": "WS15", "lat": 52.759, "lon": -1.936 },
{ "name": "Ruislip", "postcode": "HA4", "lat": 51.572, "lon": -0.421 },
{ "name": "Runcorn", "postcode": "WA7", "lat": 53.341, "lon": -2.731 },
{ "name": "Rushden", "postcode": "NN10", "lat": 52.289, "lon": -0.599 },
{ "name": "Ryde", "postcode": "PO33", "lat": 50.729, "lon": -1.162 },
{ "name": "Rye", "postcode": "TN31", "lat": 50.951, "lon": 0.733 },
{ "name": "Ryton", "postcode": "NE40", "lat": 54.970, "lon": -1.770 },
{ "name": "Saffron Walden", "postcode": "CB10", "lat": 52.023, "lon": 0.242 },
{ "name": "Salcombe", "postcode": "TQ8", "lat": 50.237, "lon": -3.768 },
{ "name": "Sale", "postcode": "M33", "lat": 53.424, "lon": -2.323 },
{ "name": "Salford", "postcode": "M5", "lat": 53.483, "lon": -2.290 },
{ "name": "Salisbury", "postcode": "SP1", "lat": 51.070, "lon": -1.794 },
{ "name": "Saltash", "postcode": "PL12", "lat": 50.409, "lon": -4.225 },
{ "name": "Saltcoats", "postcode": "KA21", "lat": 55.635, "lon": -4.784 },
{ "name": "Saltdean", "postcode": "BN2", "lat": 50.812, "lon": -0.040 },
{ "name": "Sandbach", "postcode": "CW11", "lat": 53.145, "lon": -2.363 },
{ "name": "Sandhurst", "postcode": "GU47", "lat": 51.346, "lon": -0.787 },
{ "name": "Sandown", "postcode": "PO36", "lat": 50.656, "lon": -1.152 },
{ "name": "Sandwich", "postcode": "CT13", "lat": 51.275, "lon": 1.345 },
{ "name": "Sandy", "postcode": "SG19", "lat": 52.129, "lon": -0.289 },
{ "name": "Sanquhar", "postcode": "DG4", "lat": 55.364, "lon": -3.924 },
{ "name": "Sawbridgeworth", "postcode": "CM21", "lat": 51.816, "lon": 0.150 },
{ "name": "Saxmundham", "postcode": "IP17", "lat": 52.214, "lon": 1.490 },
{ "name": "Scarborough", "postcode": "YO11", "lat": 54.279, "lon": -0.402 },
{ "name": "Scunthorpe", "postcode": "DN15", "lat": 53.587, "lon": -0.654 },
{ "name": "Seaford", "postcode": "BN25", "lat": 50.772, "lon": 0.102 },
{ "name": "Seaham", "postcode": "SR7", "lat": 54.839, "lon": -1.345 },
{ "name": "Seaton", "postcode": "EX12", "lat": 50.705, "lon": -3.073 },
{ "name": "Seaton Delaval", "postcode": "NE25", "lat": 55.073, "lon": -1.526 },
{ "name": "Sedbergh", "postcode": "LA10", "lat": 54.322, "lon": -2.526 },
{ "name": "Sedgefield", "postcode": "TS21", "lat": 54.653, "lon": -1.448 },
{ "name": "Selby", "postcode": "YO8", "lat": 53.783, "lon": -1.064 },
{ "name": "Selkirk", "postcode": "TD7", "lat": 55.547, "lon": -2.839 },
{ "name": "Settle", "postcode": "BD24", "lat": 54.068, "lon": -2.277 },
{ "name": "Sevenoaks", "postcode": "TN13", "lat": 51.276, "lon": 0.193 },
{ "name": "Severn Beach", "postcode": "BS35", "lat": 51.559, "lon": -2.664 },
{ "name": "Sewell", "postcode": "LU6", "lat": 51.900, "lon": -0.550 },
{ "name": "Shaftesbury", "postcode": "SP7", "lat": 51.005, "lon": -2.195 },
{ "name": "Shanklin", "postcode": "PO37", "lat": 50.626, "lon": -1.178 },
{ "name": "Shaw", "postcode": "OL2", "lat": 53.576, "lon": -2.090 },
{ "name": "Sheerness", "postcode": "ME12", "lat": 51.439, "lon": 0.758 },
{ "name": "Sheffield", "postcode": "S1", "lat": 53.381, "lon": -1.470 },
{ "name": "Shefford", "postcode": "SG17", "lat": 52.038, "lon": -0.332 },
{ "name": "Shelley", "postcode": "HD8", "lat": 53.587, "lon": -1.650 },
{ "name": "Shepshed", "postcode": "LE12", "lat": 52.764, "lon": -1.295 },
{ "name": "Shepton Mallet", "postcode": "BA4", "lat": 51.190, "lon": -2.547 },
{ "name": "Sherborne", "postcode": "DT9", "lat": 50.946, "lon": -2.520 },
{ "name": "Sherburn in Elmet", "postcode": "LS25", "lat": 53.794, "lon": -1.236 },
{ "name": "Sheringham", "postcode": "NR26", "lat": 52.942, "lon": 1.210 },
{ "name": "Shifnal", "postcode": "TF11", "lat": 52.671, "lon": -2.372 },
{ "name": "Shildon", "postcode": "DL4", "lat": 54.630, "lon": -1.643 },
{ "name": "Shirebrook", "postcode": "NG20", "lat": 53.204, "lon": -1.214 },
{ "name": "Shoreham-by-Sea", "postcode": "BN43", "lat": 50.834, "lon": -0.273 },
{ "name": "Shotton", "postcode": "CH5", "lat": 53.210, "lon": -3.040 },
{ "name": "Shrewsbury", "postcode": "SY1", "lat": 52.708, "lon": -2.754 },
{ "name": "Sidcup", "postcode": "DA14", "lat": 51.434, "lon": 0.103 },
{ "name": "Sidmouth", "postcode": "EX10", "lat": 50.691, "lon": -3.240 },
{ "name": "Silsden", "postcode": "BD20", "lat": 53.914, "lon": -1.938 },
{ "name": "Sittingbourne", "postcode": "ME10", "lat": 51.341, "lon": 0.734 },
{ "name": "Skegness", "postcode": "PE25", "lat": 53.143, "lon": 0.336 },
{ "name": "Skelmersdale", "postcode": "WN8", "lat": 53.550, "lon": -2.775 },
{ "name": "Skelton", "postcode": "TS12", "lat": 54.564, "lon": -0.994 },
{ "name": "Skipton", "postcode": "BD23", "lat": 53.961, "lon": -2.016 },
{ "name": "Sleaford", "postcode": "NG34", "lat": 52.999, "lon": -0.409 },
{ "name": "Sligo (note: ROI)", "postcode": "F91", "lat": 54.270, "lon": -8.470 },
{ "name": "Slough", "postcode": "SL1", "lat": 51.510, "lon": -0.595 },
{ "name": "Soham", "postcode": "CB7", "lat": 52.335, "lon": 0.340 },
{ "name": "Solihull", "postcode": "B91", "lat": 52.413, "lon": -1.780 },
{ "name": "Somerton", "postcode": "TA11", "lat": 51.055, "lon": -2.736 },
{ "name": "South Molton", "postcode": "EX36", "lat": 51.017, "lon": -3.832 },
{ "name": "South Ockendon", "postcode": "RM15", "lat": 51.509, "lon": 0.283 },
{ "name": "South Queensferry", "postcode": "EH30", "lat": 55.990, "lon": -3.398 },
{ "name": "South Shields", "postcode": "NE33", "lat": 54.998, "lon": -1.432 },
{ "name": "South Woodham Ferrers", "postcode": "CM3", "lat": 51.644, "lon": 0.616 },
{ "name": "Southam", "postcode": "CV47", "lat": 52.255, "lon": -1.390 },
{ "name": "Southampton", "postcode": "SO14", "lat": 50.909, "lon": -1.404 },
{ "name": "Southborough", "postcode": "TN4", "lat": 51.157, "lon": 0.255 },
{ "name": "Southend-on-Sea", "postcode": "SS1", "lat": 51.540, "lon": 0.711 },
{ "name": "Southminster", "postcode": "CM0", "lat": 51.662, "lon": 0.804 },
{ "name": "Southport", "postcode": "PR8", "lat": 53.646, "lon": -3.005 },
{ "name": "Southsea", "postcode": "PO5", "lat": 50.785, "lon": -1.087 },
{ "name": "Southwell", "postcode": "NG25", "lat": 53.078, "lon": -0.955 },
{ "name": "Southwick", "postcode": "BN42", "lat": 50.834, "lon": -0.235 },
{ "name": "Sowerby Bridge", "postcode": "HX6", "lat": 53.709, "lon": -1.907 },
{ "name": "Spalding", "postcode": "PE11", "lat": 52.787, "lon": -0.151 },
{ "name": "Spennymoor", "postcode": "DL16", "lat": 54.700, "lon": -1.610 },
{ "name": "Spilsby", "postcode": "PE23", "lat": 53.173, "lon": 0.094 },
{ "name": "Spixworth", "postcode": "NR10", "lat": 52.682, "lon": 1.330 },
{ "name": "St Albans", "postcode": "AL1", "lat": 51.752, "lon": -0.336 },
{ "name": "St Andrews", "postcode": "KY16", "lat": 56.339, "lon": -2.796 },
{ "name": "St Asaph", "postcode": "LL17", "lat": 53.258, "lon": -3.448 },
{ "name": "St Austell", "postcode": "PL25", "lat": 50.338, "lon": -4.791 },
{ "name": "St Bees", "postcode": "CA27", "lat": 54.490, "lon": -3.594 },
{ "name": "St Davids", "postcode": "SA62", "lat": 51.882, "lon": -5.268 },
{ "name": "St Helens", "postcode": "WA10", "lat": 53.453, "lon": -2.736 },
{ "name": "St Ives (Cornwall)", "postcode": "TR26", "lat": 50.213, "lon": -5.480 },
{ "name": "St Ives (Cambridgeshire)", "postcode": "PE27", "lat": 52.330, "lon": -0.070 },
{ "name": "St Neots", "postcode": "PE19", "lat": 52.228, "lon": -0.267 },
{ "name": "Stamford", "postcode": "PE9", "lat": 52.650, "lon": -0.480 },
{ "name": "Stanley", "postcode": "DH9", "lat": 54.867, "lon": -1.698 },
{ "name": "Stanmore", "postcode": "HA7", "lat": 51.617, "lon": -0.317 },
{ "name": "Stansted Mountfitchet", "postcode": "CM24", "lat": 51.901, "lon": 0.199 },
{ "name": "Stapleford", "postcode": "NG9", "lat": 52.928, "lon": -1.264 },
{ "name": "Staveley", "postcode": "S43", "lat": 53.266, "lon": -1.345 },
{ "name": "Stevenage", "postcode": "SG1", "lat": 51.903, "lon": -0.196 },
{ "name": "Stewarton", "postcode": "KA3", "lat": 55.682, "lon": -4.515 },
{ "name": "Stirling", "postcode": "FK8", "lat": 56.117, "lon": -3.939 },
{ "name": "Stockport", "postcode": "SK1", "lat": 53.410, "lon": -2.157 },
{ "name": "Stocksbridge", "postcode": "S36", "lat": 53.482, "lon": -1.600 },
{ "name": "Stockton-on-Tees", "postcode": "TS18", "lat": 54.568, "lon": -1.318 },
{ "name": "Stoke-on-Trent", "postcode": "ST4", "lat": 53.002, "lon": -2.186 },
{ "name": "Stone", "postcode": "ST15", "lat": 52.905, "lon": -2.153 },
{ "name": "Stonehaven", "postcode": "AB39", "lat": 56.963, "lon": -2.211 },
{ "name": "Stornoway", "postcode": "HS1", "lat": 58.210, "lon": -6.386 },
{ "name": "Stourbridge", "postcode": "DY8", "lat": 52.457, "lon": -2.147 },
{ "name": "Stowmarket", "postcode": "IP14", "lat": 52.188, "lon": 1.000 },
{ "name": "Strabane", "postcode": "BT82", "lat": 54.827, "lon": -7.463 },
{ "name": "Stranraer", "postcode": "DG9", "lat": 54.903, "lon": -5.027 },
{ "name": "Stratford-upon-Avon", "postcode": "CV37", "lat": 52.191, "lon": -1.707 },
{ "name": "Streatham", "postcode": "SW16", "lat": 51.430, "lon": -0.128 },
{ "name": "Stretford", "postcode": "M32", "lat": 53.447, "lon": -2.308 },
{ "name": "Stromness", "postcode": "KW16", "lat": 58.964, "lon": -3.296 },
{ "name": "Stroud", "postcode": "GL5", "lat": 51.745, "lon": -2.215 },
{ "name": "Sudbury", "postcode": "CO10", "lat": 52.037, "lon": 0.728 },
{ "name": "Sunbury-on-Thames", "postcode": "TW16", "lat": 51.418, "lon": -0.417 },
{ "name": "Sunderland", "postcode": "SR1", "lat": 54.906, "lon": -1.382 },
{ "name": "Sunningdale", "postcode": "SL5", "lat": 51.392, "lon": -0.634 },
{ "name": "Sunninghill", "postcode": "SL5", "lat": 51.409, "lon": -0.659 },
{ "name": "Surbiton", "postcode": "KT6", "lat": 51.392, "lon": -0.307 },
{ "name": "Sutton", "postcode": "SM1", "lat": 51.360, "lon": -0.193 },
{ "name": "Sutton Coldfield", "postcode": "B72", "lat": 52.563, "lon": -1.824 },
{ "name": "Sutton-in-Ashfield", "postcode": "NG17", "lat": 53.125, "lon": -1.260 },
{ "name": "Swadlincote", "postcode": "DE11", "lat": 52.774, "lon": -1.557 },
{ "name": "Swanage", "postcode": "BH19", "lat": 50.609, "lon": -1.963 },
{ "name": "Swanley", "postcode": "BR8", "lat": 51.396, "lon": 0.173 },
{ "name": "Swansea", "postcode": "SA1", "lat": 51.621, "lon": -3.943 },
{ "name": "Swindon", "postcode": "SN1", "lat": 51.564, "lon": -1.783 },
{ "name": "Swinton (Greater Manchester)", "postcode": "M27", "lat": 53.514, "lon": -2.340 },
{ "name": "Swinton (South Yorkshire)", "postcode": "S64", "lat": 53.488, "lon": -1.309 },
{ "name": "Sydenham", "postcode": "SE26", "lat": 51.427, "lon": -0.054 },
{ "name": "Syston", "postcode": "LE7", "lat": 52.690, "lon": -1.083 },
{ "name": "Tadcaster", "postcode": "LS24", "lat": 53.883, "lon": -1.264 },
{ "name": "Tadley", "postcode": "RG26", "lat": 51.350, "lon": -1.130 },
{ "name": "Tadworth", "postcode": "KT20", "lat": 51.291, "lon": -0.237 },
{ "name": "Talgarth", "postcode": "LD3", "lat": 51.995, "lon": -3.232 },
{ "name": "Tamworth", "postcode": "B79", "lat": 52.635, "lon": -1.695 },
{ "name": "Tarbert", "postcode": "PA29", "lat": 55.862, "lon": -5.405 },
{ "name": "Tarporley", "postcode": "CW6", "lat": 53.159, "lon": -2.668 },
{ "name": "Tavistock", "postcode": "PL19", "lat": 50.549, "lon": -4.144 },
{ "name": "Tayport", "postcode": "DD6", "lat": 56.445, "lon": -2.880 },
{ "name": "Teignmouth", "postcode": "TQ14", "lat": 50.546, "lon": -3.496 },
{ "name": "Telford", "postcode": "TF3", "lat": 52.676, "lon": -2.446 },
{ "name": "Templecombe", "postcode": "BA8", "lat": 50.999, "lon": -2.416 },
{ "name": "Tenbury Wells", "postcode": "WR15", "lat": 52.312, "lon": -2.596 },
{ "name": "Tenby", "postcode": "SA70", "lat": 51.672, "lon": -4.703 },
{ "name": "Tenterden", "postcode": "TN30", "lat": 51.069, "lon": 0.688 },
{ "name": "Tetbury", "postcode": "GL8", "lat": 51.639, "lon": -2.162 },
{ "name": "Thame", "postcode": "OX9", "lat": 51.748, "lon": -0.978 },
{ "name": "Thatcham", "postcode": "RG18", "lat": 51.402, "lon": -1.259 },
{ "name": "Thaxted", "postcode": "CM6", "lat": 51.955, "lon": 0.344 },
{ "name": "Thetford", "postcode": "IP24", "lat": 52.415, "lon": 0.748 },
{ "name": "Thirsk", "postcode": "YO7", "lat": 54.232, "lon": -1.343 },
{ "name": "Thornaby", "postcode": "TS17", "lat": 54.548, "lon": -1.300 },
{ "name": "Thornbury", "postcode": "BS35", "lat": 51.608, "lon": -2.520 },
{ "name": "Thorne", "postcode": "DN8", "lat": 53.612, "lon": -0.963 },
{ "name": "Thornton", "postcode": "FY5", "lat": 53.873, "lon": -3.010 },
{ "name": "Thornton-Cleveleys", "postcode": "FY5", "lat": 53.873, "lon": -3.010 },
{ "name": "Thorpe St Andrew", "postcode": "NR7", "lat": 52.633, "lon": 1.350 },
{ "name": "Thrapston", "postcode": "NN14", "lat": 52.396, "lon": -0.536 },
{ "name": "Three Bridges", "postcode": "RH10", "lat": 51.115, "lon": -0.180 },
{ "name": "Thurso", "postcode": "KW14", "lat": 58.593, "lon": -3.525 },
{ "name": "Tilbury", "postcode": "RM18", "lat": 51.462, "lon": 0.353 },
{ "name": "Tillicoultry", "postcode": "FK13", "lat": 56.152, "lon": -3.740 },
{ "name": "Timperley", "postcode": "WA15", "lat": 53.400, "lon": -2.330 },
{ "name": "Tingwall", "postcode": "ZE2", "lat": 60.200, "lon": -1.250 },
{ "name": "Tintagel", "postcode": "PL34", "lat": 50.663, "lon": -4.750 },
{ "name": "Tipton", "postcode": "DY4", "lat": 52.529, "lon": -2.067 },
{ "name": "Tiverton", "postcode": "EX16", "lat": 50.902, "lon": -3.490 },
{ "name": "Todmorden", "postcode": "OL14", "lat": 53.713, "lon": -2.099 },
{ "name": "Tonbridge", "postcode": "TN9", "lat": 51.195, "lon": 0.275 },
{ "name": "Torpoint", "postcode": "PL11", "lat": 50.375, "lon": -4.199 },
{ "name": "Torquay", "postcode": "TQ1", "lat": 50.471, "lon": -3.530 },
{ "name": "Totnes", "postcode": "TQ9", "lat": 50.431, "lon": -3.684 },
{ "name": "Totton", "postcode": "SO40", "lat": 50.918, "lon": -1.490 },
{ "name": "Towcester", "postcode": "NN12", "lat": 52.136, "lon": -0.990 },
{ "name": "Tranent", "postcode": "EH33", "lat": 55.944, "lon": -2.953 },
{ "name": "Tredegar", "postcode": "NP22", "lat": 51.772, "lon": -3.245 },
{ "name": "Tregaron", "postcode": "SY25", "lat": 52.219, "lon": -3.930 },
{ "name": "Treharris", "postcode": "CF46", "lat": 51.664, "lon": -3.307 },
{ "name": "Trowbridge", "postcode": "BA14", "lat": 51.320, "lon": -2.208 },
{ "name": "Truro", "postcode": "TR1", "lat": 50.263, "lon": -5.054 },
{ "name": "Tullibody", "postcode": "FK10", "lat": 56.133, "lon": -3.770 },
{ "name": "Tunbridge Wells", "postcode": "TN1", "lat": 51.136, "lon": 0.263 },
{ "name": "Turriff", "postcode": "AB53", "lat": 57.539, "lon": -2.460 },
{ "name": "Tutbury", "postcode": "DE13", "lat": 52.854, "lon": -1.686 },
{ "name": "Twickenham", "postcode": "TW1", "lat": 51.447, "lon": -0.327 },
{ "name": "Tynemouth", "postcode": "NE30", "lat": 55.017, "lon": -1.425 },
{ "name": "Tywyn", "postcode": "LL36", "lat": 52.586, "lon": -4.093 },
{ "name": "Ulceby", "postcode": "DN39", "lat": 53.619, "lon": -0.333 },
{ "name": "Ullapool", "postcode": "IV26", "lat": 57.898, "lon": -5.160 },
{ "name": "Ulverston", "postcode": "LA12", "lat": 54.195, "lon": -3.096 },
{ "name": "Uppingham", "postcode": "LE15", "lat": 52.587, "lon": -0.722 },
{ "name": "Upton", "postcode": "CH2", "lat": 53.216, "lon": -2.880 },
{ "name": "Upton-upon-Severn", "postcode": "WR8", "lat": 52.062, "lon": -2.218 },
{ "name": "Upton (Wirral)", "postcode": "CH49", "lat": 53.389, "lon": -3.098 },
{ "name": "Usk", "postcode": "NP15", "lat": 51.703, "lon": -2.903 },
{ "name": "Vale of Leven", "postcode": "G83", "lat": 55.972, "lon": -4.580 },
{ "name": "Valley", "postcode": "LL65", "lat": 53.283, "lon": -4.570 },
{ "name": "Ventnor", "postcode": "PO38", "lat": 50.594, "lon": -1.210 },
{ "name": "Verwood", "postcode": "BH31", "lat": 50.875, "lon": -1.873 },
{ "name": "Virginia Water", "postcode": "GU25", "lat": 51.403, "lon": -0.566 },
{ "name": "Wadebridge", "postcode": "PL27", "lat": 50.517, "lon": -4.836 },
{ "name": "Wadhurst", "postcode": "TN5", "lat": 51.062, "lon": 0.339 },
{ "name": "Wainfleet", "postcode": "PE24", "lat": 53.104, "lon": 0.238 },
{ "name": "Wakefield", "postcode": "WF1", "lat": 53.683, "lon": -1.497 },
{ "name": "Walmer", "postcode": "CT14", "lat": 51.201, "lon": 1.400 },
{ "name": "Wallasey", "postcode": "CH45", "lat": 53.423, "lon": -3.064 },
{ "name": "Wallingford", "postcode": "OX10", "lat": 51.599, "lon": -1.125 },
{ "name": "Walsall", "postcode": "WS1", "lat": 52.585, "lon": -1.983 },
{ "name": "Waltham Abbey", "postcode": "EN9", "lat": 51.687, "lon": 0.004 },
{ "name": "Waltham Cross", "postcode": "EN8", "lat": 51.685, "lon": -0.030 },
{ "name": "Walthamstow", "postcode": "E17", "lat": 51.585, "lon": -0.020 },
{ "name": "Walton-on-Thames", "postcode": "KT12", "lat": 51.386, "lon": -0.417 },
{ "name": "Walton-le-Dale", "postcode": "PR5", "lat": 53.740, "lon": -2.660 },
{ "name": "Walton", "postcode": "L4", "lat": 53.456, "lon": -2.966 },
{ "name": "Wanstead", "postcode": "E11", "lat": 51.575, "lon": 0.024 },
{ "name": "Wantage", "postcode": "OX12", "lat": 51.588, "lon": -1.426 },
{ "name": "Ware", "postcode": "SG12", "lat": 51.808, "lon": -0.028 },
{ "name": "Wareham", "postcode": "BH20", "lat": 50.687, "lon": -2.111 },
{ "name": "Warminster", "postcode": "BA12", "lat": 51.204, "lon": -2.178 },
{ "name": "Warrington", "postcode": "WA1", "lat": 53.390, "lon": -2.596 },
{ "name": "Warwick", "postcode": "CV34", "lat": 52.282, "lon": -1.584 },
{ "name": "Washington", "postcode": "NE38", "lat": 54.900, "lon": -1.520 },
{ "name": "Watchet", "postcode": "TA23", "lat": 51.181, "lon": -3.330 },
{ "name": "Waterlooville", "postcode": "PO7", "lat": 50.880, "lon": -1.030 },
{ "name": "Watford", "postcode": "WD17", "lat": 51.656, "lon": -0.390 },
{ "name": "Wath-upon-Dearne", "postcode": "S63", "lat": 53.502, "lon": -1.345 },
{ "name": "Watlington", "postcode": "OX49", "lat": 51.645, "lon": -1.005 },
{ "name": "Watton", "postcode": "IP25", "lat": 52.566, "lon": 0.827 },
{ "name": "Wavertree", "postcode": "L15", "lat": 53.396, "lon": -2.920 },
{ "name": "Wednesbury", "postcode": "WS10", "lat": 52.551, "lon": -2.019 },
{ "name": "Wednesfield", "postcode": "WV11", "lat": 52.606, "lon": -2.083 },
{ "name": "Weedon Bec", "postcode": "NN7", "lat": 52.230, "lon": -1.083 },
{ "name": "Welling", "postcode": "DA16", "lat": 51.464, "lon": 0.110 },
{ "name": "Wellingborough", "postcode": "NN8", "lat": 52.303, "lon": -0.694 },
{ "name": "Wells", "postcode": "BA5", "lat": 51.209, "lon": -2.648 },
{ "name": "Wells-next-the-Sea", "postcode": "NR23", "lat": 52.951, "lon": 0.851 },
{ "name": "Welwyn", "postcode": "AL6", "lat": 51.830, "lon": -0.210 },
{ "name": "Welwyn Garden City", "postcode": "AL8", "lat": 51.802, "lon": -0.209 },
{ "name": "Wem", "postcode": "SY4", "lat": 52.857, "lon": -2.718 },
{ "name": "Wembley", "postcode": "HA9", "lat": 51.552, "lon": -0.304 },
{ "name": "Wemyss Bay", "postcode": "PA18", "lat": 55.876, "lon": -4.889 },
{ "name": "Wendover", "postcode": "HP22", "lat": 51.761, "lon": -0.739 },
{ "name": "West Bromwich", "postcode": "B70", "lat": 52.518, "lon": -1.992 },
{ "name": "West Drayton", "postcode": "UB7", "lat": 51.510, "lon": -0.470 },
{ "name": "West Kirby", "postcode": "CH48", "lat": 53.373, "lon": -3.183 },
{ "name": "West Malling", "postcode": "ME19", "lat": 51.292, "lon": 0.404 },
{ "name": "West Mersea", "postcode": "CO5", "lat": 51.777, "lon": 0.919 },
{ "name": "Westhoughton", "postcode": "BL5", "lat": 53.555, "lon": -2.523 },
{ "name": "Weston-super-Mare", "postcode": "BS23", "lat": 51.346, "lon": -2.978 },
{ "name": "Weston Turville", "postcode": "HP22", "lat": 51.789, "lon": -0.760 },
{ "name": "Wetherby", "postcode": "LS22", "lat": 53.928, "lon": -1.386 },
{ "name": "Weybridge", "postcode": "KT13", "lat": 51.372, "lon": -0.459 },
{ "name": "Weymouth", "postcode": "DT4", "lat": 50.611, "lon": -2.457 },
{ "name": "Whaley Bridge", "postcode": "SK23", "lat": 53.330, "lon": -1.982 },
{ "name": "Whitchurch (Hampshire)", "postcode": "RG28", "lat": 51.229, "lon": -1.338 },
{ "name": "Whitchurch (Shropshire)", "postcode": "SY13", "lat": 52.969, "lon": -2.680 },
{ "name": "Whitchurch (Cardiff)", "postcode": "CF14", "lat": 51.521, "lon": -3.220 },
{ "name": "Whitehaven", "postcode": "CA28", "lat": 54.548, "lon": -3.584 },
{ "name": "Whitehill", "postcode": "GU35", "lat": 51.111, "lon": -0.858 },
{ "name": "Whitby", "postcode": "YO21", "lat": 54.486, "lon": -0.614 },
{ "name": "Whitchurch-on-Thames", "postcode": "RG8", "lat": 51.496, "lon": -1.135 },
{ "name": "Whitley Bay", "postcode": "NE26", "lat": 55.046, "lon": -1.447 },
{ "name": "Whitstable", "postcode": "CT5", "lat": 51.360, "lon": 1.025 },
{ "name": "Whittlesey", "postcode": "PE7", "lat": 52.557, "lon": -0.127 },
{ "name": "Whitwell", "postcode": "S80", "lat": 53.283, "lon": -1.216 },
{ "name": "Whyteleafe", "postcode": "CR3", "lat": 51.309, "lon": -0.080 },
{ "name": "Wick", "postcode": "KW1", "lat": 58.439, "lon": -3.094 },
{ "name": "Wickford", "postcode": "SS12", "lat": 51.613, "lon": 0.523 },
{ "name": "Widnes", "postcode": "WA8", "lat": 53.364, "lon": -2.728 },
{ "name": "Wigan", "postcode": "WN1", "lat": 53.545, "lon": -2.631 },
{ "name": "Wigston", "postcode": "LE18", "lat": 52.581, "lon": -1.093 },
{ "name": "Wigtown", "postcode": "DG8", "lat": 54.867, "lon": -4.437 },
{ "name": "Willenhall", "postcode": "WV13", "lat": 52.586, "lon": -2.059 },
{ "name": "Willingham", "postcode": "CB24", "lat": 52.314, "lon": 0.056 },
{ "name": "Wilmslow", "postcode": "SK9", "lat": 53.326, "lon": -2.231 },
{ "name": "Wilton", "postcode": "SP2", "lat": 51.081, "lon": -1.865 },
{ "name": "Wimborne Minster", "postcode": "BH21", "lat": 50.799, "lon": -1.986 },
{ "name": "Wincanton", "postcode": "BA9", "lat": 51.057, "lon": -2.405 },
{ "name": "Winchcombe", "postcode": "GL54", "lat": 51.953, "lon": -1.964 },
{ "name": "Winchester", "postcode": "SO23", "lat": 51.063, "lon": -1.308 },
{ "name": "Windermere", "postcode": "LA23", "lat": 54.376, "lon": -2.907 },
{ "name": "Windsor", "postcode": "SL4", "lat": 51.483, "lon": -0.604 },
{ "name": "Winsford", "postcode": "CW7", "lat": 53.193, "lon": -2.523 },
{ "name": "Winslow", "postcode": "MK18", "lat": 51.999, "lon": -0.881 },
{ "name": "Winterton", "postcode": "DN15", "lat": 53.654, "lon": -0.598 },
{ "name": "Wirksworth", "postcode": "DE4", "lat": 53.082, "lon": -1.572 },
{ "name": "Wisbech", "postcode": "PE13", "lat": 52.664, "lon": 0.159 },
{ "name": "Witham", "postcode": "CM8", "lat": 51.800, "lon": 0.640 },
{ "name": "Withernsea", "postcode": "HU19", "lat": 53.731, "lon": 0.033 },
{ "name": "Witney", "postcode": "OX28", "lat": 51.785, "lon": -1.485 },
{ "name": "Wivenhoe", "postcode": "CO7", "lat": 51.857, "lon": 0.958 },
{ "name": "Woburn", "postcode": "MK17", "lat": 51.988, "lon": -0.602 },
{ "name": "Woking", "postcode": "GU21", "lat": 51.319, "lon": -0.558 },
{ "name": "Wokingham", "postcode": "RG40", "lat": 51.411, "lon": -0.840 },
{ "name": "Woldingham", "postcode": "CR3", "lat": 51.285, "lon": -0.040 },
{ "name": "Wolverhampton", "postcode": "WV1", "lat": 52.585, "lon": -2.128 },
{ "name": "Wombwell", "postcode": "S73", "lat": 53.518, "lon": -1.400 },
{ "name": "Woodbridge", "postcode": "IP12", "lat": 52.093, "lon": 1.318 },
{ "name": "Woodford", "postcode": "IG8", "lat": 51.607, "lon": 0.033 },
{ "name": "Woodley", "postcode": "RG5", "lat": 51.449, "lon": -0.885 },
{ "name": "Woodstock", "postcode": "OX20", "lat": 51.848, "lon": -1.351 },
{ "name": "Wooler", "postcode": "NE71", "lat": 55.547, "lon": -2.013 },
{ "name": "Woolwich", "postcode": "SE18", "lat": 51.489, "lon": 0.064 },
{ "name": "Wootton Bassett", "postcode": "SN4", "lat": 51.541, "lon": -1.904 },
{ "name": "Worcester", "postcode": "WR1", "lat": 52.193, "lon": -2.220 },
{ "name": "Workington", "postcode": "CA14", "lat": 54.642, "lon": -3.554 },
{ "name": "Worksop", "postcode": "S80", "lat": 53.305, "lon": -1.125 },
{ "name": "Worthing", "postcode": "BN11", "lat": 50.817, "lon": -0.372 },
{ "name": "Wotton-under-Edge", "postcode": "GL12", "lat": 51.639, "lon": -2.348 },
{ "name": "Wrexham", "postcode": "LL11", "lat": 53.046, "lon": -2.993 },
{ "name": "Wroughton", "postcode": "SN4", "lat": 51.524, "lon": -1.800 },
{ "name": "Wymondham", "postcode": "NR18", "lat": 52.575, "lon": 1.114 },
{ "name": "Wyke Regis", "postcode": "DT4", "lat": 50.600, "lon": -2.480 },
{ "name": "Wylam", "postcode": "NE41", "lat": 54.974, "lon": -1.820 },
{ "name": "Yarm", "postcode": "TS15", "lat": 54.503, "lon": -1.357 },
{ "name": "Yarmouth (Isle of Wight)", "postcode": "PO41", "lat": 50.705, "lon": -1.499 },
{ "name": "Yate", "postcode": "BS37", "lat": 51.540, "lon": -2.418 },
{ "name": "Yateley", "postcode": "GU46", "lat": 51.343, "lon": -0.829 },
{ "name": "Yelverton", "postcode": "PL20", "lat": 50.492, "lon": -4.083 },
{ "name": "Yeovil", "postcode": "BA20", "lat": 50.943, "lon": -2.633 },
{ "name": "York", "postcode": "YO1", "lat": 53.959, "lon": -1.082 }
]















